TimeMS,Acc,qDot
0.0,8.281048306174878,-0.3654077677251887
0.001,8.286179350634372,703.8920603119847
0.002,8.291313508282734,704.1011250406395
0.003,8.296450780926065,704.3102434400575
0.004,8.301591170371458,704.5194155159553
0.005,8.306734678426938,704.728641274041
0.006,8.311881306901443,704.9379207200138
0.007,8.31703105760489,705.1472538595656
0.008,8.322183932348146,705.3566406983808
0.009,8.327339932942982,705.566081242134
0.01,8.332499061202153,705.7755754964929
0.011,8.337661318939357,705.9851234671177
0.012,8.342826707969209,706.1947251596583
0.013,8.347995230107315,706.4043805797593
0.014,8.353166887170179,706.6140897330544
0.015,8.358341680975284,706.8238526251704
0.016,8.363519613341076,707.0336692617274
0.017,8.368700686086894,707.2435396483341
0.018,8.37388490103308,707.4534637905939
0.019,8.379072260000914,707.6634416941012
0.02,8.384262764812584,707.8734733644401
0.021,8.389456417291283,708.0835588071894
0.022,8.394653219261134,708.2936980279193
0.023,8.399853172547184,708.5038910321894
0.024,8.405056278975483,708.7141378255541
0.025,8.410262540372965,708.9244384135565
0.026,8.41547195856758,709.134792801734
0.027,8.420684535388206,709.3452009956147
0.028,8.425900272664643,709.5556630007177
0.029,8.431119172227692,709.7661788225552
0.03,8.436341235909092,709.9767484666304
0.031,8.441566465541504,710.1873719384375
0.032,8.446794862958578,710.3980492434632
0.033,8.452026429994923,710.6087803871865
0.034,8.45726116848606,710.8195653750756
0.035,8.462499080268513,711.0304042125937
0.036,8.467740167179715,711.2412969051924
0.037,8.472984431058093,711.4522434583166
0.038,8.478231873743027,711.6632438774037
0.039,8.483482497074817,711.8742981678799
0.04,8.488736302894752,712.0854063351653
0.041,8.493993293045092,712.2965683846717
0.042,8.499253469368991,712.5077843217999
0.043,8.50451683371064,712.7190541519458
0.044,8.509783387915116,712.930377880493
0.045,8.515053133828502,713.1417555128195
0.046,8.520326073297838,713.3531870542945
0.047,8.525602208171083,713.5646725102771
0.048,8.530881540297194,713.7762118861192
0.049,8.536164071526093,713.9878051871644
0.05,8.541449803708614,714.1994524187464
0.051,8.546738738696597,714.4111535861914
0.052,8.552030878342842,714.6229086948174
0.053,8.557326224501068,714.8347177499322
0.054,8.56262477902601,715.046580756837
0.055,8.567926543773307,715.2584977208223
0.056,8.573231520599611,715.470468647172
0.057,8.578539711362529,715.682493541161
0.058,8.583851117920592,715.894572408054
0.059,8.589165742133334,716.1067052531085
0.06,8.59448358586125,716.318892081574
0.061,8.599804650965762,716.531132898689
0.062,8.605128939309294,716.7434277096849
0.063,8.610456452755248,716.9557765197852
0.064,8.615787193167924,717.1681793342024
0.065,8.621121162412665,717.3806361581427
0.066,8.626458362355715,717.5931469968016
0.067,8.631798794864325,717.805711855367
0.068,8.63714246180672,718.0183307390186
0.069,8.64248936505204,718.2310036529254
0.07,8.647839506470438,718.4437306022496
0.071,8.65319288793304,718.6565115921442
0.072,8.658549511311884,718.8693466277513
0.073,8.663909378480032,719.0822357142074
0.074,8.669272491311514,719.2951788566392
0.075,8.674638851681276,719.5081760601629
0.076,8.6800084614653,719.7212273298882
0.077,8.685381322540474,719.9343326709138
0.078,8.690757436784699,720.1474920883309
0.079,8.696136806076852,720.3607055872224
0.08,8.701519432296735,720.5739731726601
0.081,8.706905317325162,720.7872948497092
0.082,8.712294463043921,721.0006706234254
0.083,8.717686871335726,721.2141004988541
0.084,8.723082544084312,721.4275844810335
0.085,8.728481483174374,721.6411225749929
0.086,8.733883690491547,721.8547147857505
0.087,8.739289167922502,722.0683611183186
0.088,8.74469791735481,722.2820615776976
0.089,8.750109940677069,722.4958161688809
0.09,8.755525239778851,722.7096248968528
0.091,8.760943816550661,722.9234877665874
0.092,8.76636567288401,723.1374047830504
0.093,8.7717908106714,723.3513759511995
0.094,8.777219231806258,723.5654012759812
0.095,8.782650938183025,723.779480762335
0.096,8.788085931697132,723.9936144151908
0.097,8.79352421424493,724.2078022394682
0.098,8.798965787723816,724.4220442400801
0.099,8.804410654032095,724.6363404219275
0.1,8.8098588150691,724.8506907899042
0.101,8.815310272735145,725.0650953488948
0.102,8.82076502893147,725.2795541037735
0.103,8.82622308556034,725.4940670594067
0.104,8.831684444525008,725.7086342206519
0.105,8.837149107729653,725.9232555923553
0.106,8.842058107638344,726.1149800934602
0.107,8.847529046790871,726.329704050452
0.108,8.853003295706813,726.5444822318113
0.109,8.85848085629417,726.7593146423484
0.11,8.863961730461966,726.974201286866
0.111,8.869445920120219,727.1891421701589
0.112,8.874933427179869,727.4041372970094
0.113,8.88042425355289,727.6191866721927
0.114,8.885918401152242,727.8342903004757
0.115,8.89141587189182,728.0494481866128
0.116,8.896916667686558,728.2646603353529
0.117,8.902420790452322,728.479926751432
0.118,8.907928242105998,728.695247439579
0.119,8.913439024565463,728.9106224045136
0.12,8.918953139749533,729.1260516509449
0.121,8.924470589578052,729.341535183573
0.122,8.929991375971847,729.5570730070904
0.123,8.935515500852691,729.7726651261768
0.124,8.941042966143385,729.9883115455054
0.125,8.946573773767721,730.2040122697399
0.126,8.952107925650422,730.4197673035318
0.127,8.957645423717272,730.6355766515275
0.128,8.963186269894972,730.8514403183597
0.129,8.968730466111264,731.0673583086543
0.13,8.97427801429487,731.2833306270276
0.131,8.97982891637546,731.4993572780847
0.132,8.985383174283735,731.7154382664231
0.133,8.990940789951392,731.9315735966308
0.134,8.996501765311063,732.1477632732837
0.135,9.002066102296423,732.3640073009512
0.136,9.007633802842134,732.5803056841925
0.137,9.013204868883804,732.7966584275557
0.138,9.018779302358093,733.0130655355821
0.139,9.024357105202588,733.2295270127998
0.14,9.02993827935592,733.4460428637308
0.141,9.03552282675771,733.6626130928863
0.142,9.041110749348517,733.8792377047664
0.143,9.046702049069951,734.0959167038634
0.144,9.052296727864608,734.3126500946602
0.145,9.057894787676032,734.5294378816282
0.146,9.063496230448827,734.7462800692311
0.147,9.069101058128519,734.9631766619214
0.148,9.074709272661686,735.1801276641427
0.149,9.080320875995895,735.3971330803297
0.15,9.085935870079663,735.6141929149052
0.151,9.09155425686255,735.8313071722847
0.152,9.09717603829511,736.0484758568731
0.153,9.10280121632885,736.2656989730646
0.154,9.108429792916313,736.4829765252449
0.155,9.114061770011048,736.7003085177902
0.156,9.11969714956755,736.9176949550649
0.157,9.12533593354137,737.1351358414263
0.158,9.130978123889003,737.3526311812193
0.159,9.13662372256798,737.5701809787809
0.16,9.142272731536842,737.7877852384385
0.161,9.147925152755072,738.0054439645074
0.162,9.153580988183203,738.2231571612954
0.163,9.159240239782767,738.4409248330999
0.164,9.164902909516252,738.6587469842074
0.165,9.170568999347187,738.8766236188956
0.166,9.176238511240111,739.0945547414324
0.167,9.181911447160505,739.3125403560741
0.168,9.187587809074925,739.5305804670697
0.169,9.19326759895086,739.7486750786554
0.17,9.198950818756847,739.96682419506
0.171,9.204637470462435,740.1850278205019
0.172,9.209745342469224,740.3798839873524
0.173,9.215438512238842,740.5981907386856
0.174,9.221135119620627,740.8165520111277
0.175,9.226835166588046,741.0349678088592
0.176,9.232538655115508,741.2534381360471
0.177,9.238245587178474,741.4719629968515
0.178,9.243955964753415,741.690542395422
0.179,9.24966978981775,741.9091763358956
0.18,9.255387064349954,742.1278648224021
0.181,9.261107790329516,742.3466078590611
0.182,9.26683196973687,742.5654054499796
0.183,9.27255960455352,742.7842575992565
0.184,9.27829069676196,743.0031643109816
0.185,9.284025248345657,743.2221255892314
0.186,9.28976326128914,743.4411414380752
0.187,9.295504737577886,743.6602118615701
0.188,9.301249679198436,743.8793368637647
0.189,9.306998088138325,744.0985164486968
0.19,9.312749966386056,744.3177506203933
0.191,9.318505315931192,744.537039382872
0.192,9.324264138764303,744.7563827401406
0.193,9.330026436876919,744.9757806961948
0.194,9.335792212261627,745.1952332550215
0.195,9.341561466912037,745.4147404205985
0.196,9.347334202822703,745.6343021968902
0.197,9.35311042198927,745.8539185878542
0.198,9.35889012640832,746.0735895974343
0.199,9.364673318077507,746.2933152295672
0.2,9.370459998995482,746.5130954881777
0.201,9.376250171161876,746.7329303771801
0.202,9.382043836577369,746.9528199004789
0.203,9.38784099724366,747.172764061969
0.204,9.393641655163414,747.3927628655327
0.205,9.399445812340357,747.6128163150441
0.206,9.405253470779229,747.8329244143669
0.207,9.411064632485736,748.0530871673519
0.208,9.416879299466665,748.273304577843
0.209,9.422697473729759,748.4935766496704
0.21,9.42851915728381,748.713903386656
0.211,9.434344352138641,748.9342847926115
0.212,9.440173060305039,749.1547208713359
0.213,9.446005283794852,749.37521162662
0.214,9.45184102462095,749.5957570622435
0.215,9.457680284797172,749.816357181974
0.216,9.463523066338418,750.0370119895713
0.217,9.469369371260608,750.2577214887831
0.218,9.475219201580636,750.4784856833459
0.219,9.481072559316477,750.6993045769877
0.22,9.486929446487062,750.9201781734239
0.221,9.492789865112385,751.1411064763604
0.222,9.49865381721347,751.3620894894931
0.223,9.503920494337772,751.5593718827454
0.224,9.509791157128308,751.7804583823447
0.225,9.515665359256253,752.0015996026893
0.226,9.521543102746623,752.2227955474342
0.227,9.52742438962538,752.4440462202213
0.228,9.533309221919565,752.6653516246832
0.229,9.539197601657238,752.886711764443
0.23,9.545089530867438,753.1081266431099
0.231,9.550985011580266,753.3295962642856
0.232,9.556884045826857,753.5511206315598
0.233,9.562786635639311,753.7726997485104
0.234,9.568692783050823,753.9943336187071
0.235,9.57460249009554,754.2160222457053
0.236,9.580515758808694,754.4377656330535
0.237,9.586432591226536,754.659563784287
0.238,9.592352989386288,754.8814167029306
0.239,9.598276955326252,755.1033243924986
0.24,9.60420449108576,755.3252868564955
0.241,9.610135598705114,755.547304098413
0.242,9.616070280225694,755.7693761217331
0.243,9.622008537689904,755.9915029299276
0.244,9.62795037314113,756.2136845264553
0.245,9.633895788623851,756.4359209147666
0.246,9.639844786183508,756.6582120982986
0.247,9.645797367866617,756.8805580804792
0.248,9.651753535720724,757.1029588647264
0.249,9.657713291794357,757.3254144544436
0.25,9.663676638137122,757.5479248530264
0.251,9.669643576799652,757.7704900638595
0.252,9.675614109833559,757.9931100903137
0.253,9.68158823929154,758.2157849357518
0.254,9.687565967227318,758.438514603525
0.255,9.693547295695604,758.6612990969718
0.256,9.699532226752194,758.8841384194222
0.257,9.705520762453864,759.1070325741927
0.258,9.711512904858456,759.3299815645902
0.259,9.717508656024862,759.5529853939112
0.26,9.723508018012943,759.7760440654386
0.261,9.729510992883647,759.9991575824466
0.262,9.735517582698959,760.2223259481985
0.263,9.74152778952184,760.4455491659436
0.264,9.747541615416338,760.6688272389227
0.265,9.753559062447545,760.8921601703661
0.266,9.759580132681519,761.1155479634891
0.267,9.764987513806028,761.3149269335702
0.268,9.771015464868578,761.5384184815977
0.269,9.777047045126228,761.7619649004668
0.27,9.783082256649077,761.98556619335
0.271,9.789121101508321,762.2092223634113
0.272,9.795163581776182,762.4329334138024
0.273,9.801209699525876,762.6566993476634
0.274,9.807259456831716,762.8805201681239
0.275,9.813312855768991,763.1043958783006
0.276,9.819369898414077,763.3283264813012
0.277,9.825430586844385,763.5523119802211
0.278,9.83149492313832,763.7763523781434
0.279,9.837562909375368,764.0004476781412
0.28,9.843634547636064,764.2245978832766
0.281,9.849709840001925,764.4488029965984
0.282,9.855788788555563,764.6730630211454
0.283,9.861871395380625,764.8973779599457
0.284,9.867957662561746,765.1217478160141
0.285,9.874047592184684,765.3461725923559
0.286,9.88014118633615,765.5706522919627
0.287,9.886238447103965,765.7951869178171
0.288,9.892339376576983,766.0197764728896
0.289,9.898443976845046,766.2444209601379
0.29,9.904552249999101,766.4691203825095
0.291,9.910664198131126,766.6938747429408
0.292,9.916779823334092,766.9186840443544
0.293,9.922899127702081,767.1435482896644
0.294,9.929022113330197,767.3684674817719
0.295,9.935148782314545,767.5934416235652
0.296,9.941279136752351,767.8184707179242
0.297,9.947413178741806,768.0435547677138
0.298,9.953550910382196,768.2686937757892
0.299,9.95969233377387,768.4938877449947
0.3,9.965837451018151,768.7191366781608
0.301,9.971986264217476,768.9444405781082
0.302,9.97813877547531,769.1697994476456
0.303,9.984294986896124,769.3952132895683
0.304,9.990454900585501,769.620682106663
0.305,9.996618518650044,769.846205901703
0.306,10.002153535865295,770.0474449715654
0.307,10.008324188663117,770.2730727246523
0.308,10.014498551945657,770.4987554635501
0.309,10.020676627823619,770.7244931909875
0.31,10.0268584184087,770.9502859096789
0.311,10.033043925813704,771.1761336223292
0.312,10.039233152152475,771.4020363316322
0.313,10.045426099539863,771.6279940402668
0.314,10.051622770091834,771.8540067509031
0.315,10.05782316592534,772.0800744661971
0.316,10.064027289158421,772.3061971887944
0.317,10.07023514191019,772.5323749213293
0.318,10.076446726300748,772.7586076664221
0.319,10.082662044451292,772.9848954266827
0.32,10.08888109848409,773.2112382047103
0.321,10.09510389052239,773.4376360030885
0.322,10.101330422690566,773.6640888243929
0.323,10.107560697114028,773.8905966711858
0.324,10.113794715919196,774.117159546016
0.325,10.120032481233608,774.3437774514229
0.326,10.126273995185791,774.5704503899316
0.327,10.13251925990538,774.7971783640567
0.328,10.138768277523058,775.0239613763016
0.329,10.14502105017052,775.2507994291548
0.33,10.15127757998056,775.4776925250952
0.331,10.157537869087026,775.7046406665899
0.332,10.163801919624788,775.9316438560913
0.333,10.170069733729822,776.1587020960433
0.334,10.176341313539096,776.3858153888741
0.335,10.18261666119069,776.6129837370021
0.336,10.188895778823747,776.8402071428342
0.337,10.1951786685784,777.0674856087622
0.338,10.201465332595909,777.2948191371692
0.339,10.20775577301858,777.5222077304242
0.34,10.214049991989734,777.7496513908837
0.341,10.219701931538868,777.9525605496415
0.342,10.226003325866719,778.1801083213329
0.343,10.232308504959068,778.4077111668842
0.344,10.238617470963371,778.6353690886042
0.345,10.244930226028174,778.8630820887904
0.346,10.251246772303103,779.0908501697287
0.347,10.257567111938783,779.3186733336912
0.348,10.263891247086951,779.5465515829386
0.349,10.270219179900414,779.77448491972
0.35,10.276550912532983,780.0024733462704
0.351,10.282886447139598,780.2305168648147
0.352,10.2892257858762,780.4586154775633
0.353,10.295568930899838,780.6867691867155
0.354,10.301915884368624,780.914977994459
0.355,10.308266648441679,781.1432419029665
0.356,10.314621225279256,781.3715609144008
0.357,10.32097961704265,781.5999350309119
0.358,10.327341825894177,781.8283642546359
0.359,10.333707853997277,782.0568485876979
0.36,10.340077703516448,782.2853880322112
0.361,10.346451376617196,782.5139825902737
0.362,10.352828875466175,782.7426322639747
0.363,10.359210202231026,782.971337055387
0.364,10.365595359080508,783.2000969665744
0.365,10.371984348184453,783.4289119995868
0.366,10.378377171713698,783.6577821564603
0.367,10.384773831840212,783.8867074392205
0.368,10.39117433073702,784.1156878498799
0.369,10.397578670578165,784.3447233904371
0.37,10.40398685353882,784.5738140628794
0.371,10.410398881795212,784.8029598691827
0.372,10.416156278131822,785.0073482519015
0.373,10.422575608280212,785.2365982811658
0.374,10.428998790035461,785.4659034498297
0.375,10.43542582557797,785.6952637598196
0.376,10.441856717089156,785.9246792130456
0.377,10.448291466751561,786.1541498114092
0.378,10.454730076748788,786.383675556797
0.379,10.46117254926548,786.6132564510835
0.38,10.467618886487395,786.8428924961304
0.381,10.47406909060131,787.0725836937861
0.382,10.48052316379512,787.3023300458868
0.383,10.486981108257796,787.5321315542568
0.384,10.49344292617932,787.7619882207056
0.385,10.49990861975081,787.9919000470312
0.386,10.50637819116445,788.2218670350197
0.387,10.512851642613454,788.4518891864417
0.388,10.519328976292142,788.6819665030571
0.389,10.525810194395937,788.9120989866128
0.39,10.532295299121252,789.1422866388413
0.391,10.538784292665671,789.3725294614643
0.392,10.545277177227769,789.6028274561886
0.393,10.551773955007253,789.8331806247096
0.394,10.558274628204904,790.0635889687097
0.395,10.564779199022523,790.2940524898567
0.396,10.571287669663045,790.5245711898066
0.397,10.577800042330484,790.755145070204
0.398,10.584316319229872,790.9857741326772
0.399,10.590836502567369,791.2164583788435
0.4,10.59736059455022,791.447197810308
0.401,10.60388859738669,791.6779924286602
0.402,10.609749795468948,791.8838123243846
0.403,10.61628522446969,792.1147112516705
0.404,10.622824570728108,792.345665370269
0.405,10.629367836456675,792.5766746817188
0.406,10.635915023869003,792.8077391875477
0.407,10.64246613517973,793.0388588892687
0.408,10.6490211726046,793.2700337883829
0.409,10.655580138360465,793.5012638863781
0.41,10.662143034665183,793.7325491847273
0.411,10.668709863737758,793.9638896848926
0.412,10.675280627798273,794.1952853883223
0.413,10.681855329067837,794.42673629645
0.414,10.68843396976869,794.6582424106977
0.415,10.695016552124159,794.8898037324739
0.416,10.701603078358598,795.1214202631722
0.417,10.708193550697526,795.3530920041765
0.418,10.714787971367443,795.5848189568529
0.419,10.721386342596025,795.8166011225576
0.42,10.727988666612,796.0484385026332
0.421,10.73459494564514,796.2803310984064
0.422,10.741205181926357,796.5122789111933
0.423,10.747819377687641,796.744281942296
0.424,10.75443753516201,796.9763401930015
0.425,10.761059656583628,797.2084536645856
0.426,10.767685744187744,797.4406223583106
0.427,10.774315800210633,797.6728462754229
0.428,10.780949826889733,797.9051254171587
0.429,10.787587826463493,798.1374597847387
0.43,10.793547464195145,798.3446152548282
0.431,10.800193007531037,798.5770539912464
0.432,10.806842530253011,798.809547956856
0.433,10.813496034603808,799.042097152826
0.434,10.820153522827203,799.274701580311
0.435,10.826814997168128,799.5073612404534
0.436,10.833480459872534,799.7400761343803
0.437,10.840149913187505,799.9728462632064
0.438,10.846823359361226,800.2056716280331
0.439,10.853500800642905,800.4385522299463
0.44,10.860182239282908,800.6714880700209
0.441,10.866867677532682,800.9044791493172
0.442,10.873557117644703,801.1375254688803
0.443,10.880250561872606,801.3706270297432
0.444,10.886948012471109,801.6037838329262
0.445,10.89364947169596,801.8369958794325
0.446,10.900354941804085,802.0702631702558
0.447,10.907064425053415,802.3035857063721
0.448,10.913777923703035,802.5369634887467
0.449,10.920495440013125,802.7703965183301
0.45,10.92721697624489,803.003884796058
0.451,10.933942534660698,803.2374283228534
0.452,10.940672117523999,803.4710270996269
0.453,10.947405727099287,803.704681127272
0.454,10.954143365652195,803.9383904066706
0.455,10.960885035449461,804.1721549386904
0.456,10.966937440567701,804.380549815461
0.457,10.973686764721029,804.614418753817
0.458,10.980440126691816,804.8483429471117
0.459,10.987197528751066,805.0823223961595
0.46,10.993958973170816,805.3163571017585
0.461,11.000724462224248,805.550447064695
0.462,11.007493998185652,805.7845922857407
0.463,11.014267583330357,806.0187927656526
0.464,11.021045219934855,806.2530485051752
0.465,11.027826910276664,806.4873595050374
0.466,11.034612656634454,806.721725765955
0.467,11.041402461288,806.9561472886302
0.468,11.048196326518102,807.1906240737492
0.469,11.05499425460673,807.4251561219868
0.47,11.061796247836945,807.6597434340024
0.471,11.068602308492846,807.8943860104401
0.472,11.075412438859697,808.1290838519324
0.473,11.082226641223851,808.363836959096
0.474,11.089044917872714,808.5986453325334
0.475,11.095867271094855,808.8335089728341
0.476,11.102693703179877,809.0684278805719
0.477,11.109524216418535,809.3034020563074
0.478,11.116358813102687,809.5384315005878
0.479,11.123197495525227,809.7735162139437
0.48,11.129336701375646,809.9830542038752
0.481,11.136183141434337,810.2182433422455
0.482,11.143033673880485,810.4534877510346
0.483,11.149888301011282,810.6887874307167
0.484,11.156747025125078,810.9241423817549
0.485,11.163609848521332,811.1595526045978
0.486,11.170476773500537,811.3950180996782
0.487,11.177347802364354,811.6305388674145
0.488,11.184222937415546,811.8661149082133
0.489,11.191102180957921,812.1017462224636
0.49,11.197985535296466,812.3374328105423
0.491,11.204873002737202,812.5731746728102
0.492,11.2117645855873,812.8089718096148
0.493,11.218660286155048,813.04482422129
0.494,11.225560106749771,813.2807319081523
0.495,11.23246404968197,813.5166948705067
0.496,11.239372117263235,813.752713108643
0.497,11.24628431180621,813.9887866228345
0.498,11.253200635624717,814.2249154133428
0.499,11.26012109103366,814.4610994804141
0.5,11.267045680349007,814.6973388242782
0.501,11.273974405887909,814.9336334451534
0.502,11.280907269968544,815.1699833432406
0.503,11.287844274910253,815.4063885187273
0.504,11.294071444373017,815.6170688984946
0.505,11.301016311416209,815.8535785019893
0.506,11.307965326045894,816.0901433832238
0.507,11.314918490585674,816.3267635423271
0.508,11.32187580736034,816.5634389794166
0.509,11.328837278695715,816.8001696945915
0.51,11.335802906918795,817.0369556879401
0.511,11.342772694357667,817.2737969595338
0.512,11.349746643341488,817.5106935094285
0.513,11.356724756200572,817.747645337667
0.514,11.363707035266357,817.9846524442778
0.515,11.370693482871317,818.2217148292718
0.516,11.377684101349109,818.4588324926478
0.517,11.38467889303449,818.6960054343895
0.518,11.391677860263277,818.9332336544636
0.519,11.398681005372476,819.1705171528253
0.52,11.405688330700126,819.4078559294111
0.521,11.41269983858544,819.6452499841455
0.522,11.419715531368736,819.8826993169386
0.523,11.426735411391395,820.1202039276818
0.524,11.433759480995958,820.3577638162552
0.525,11.440787742526096,820.5953789825234
0.526,11.447096545859988,820.8071053060584
0.527,11.454132766260585,821.0448248889336
0.528,11.46117318538251,821.2825997489002
0.529,11.468217805573765,821.5204298857644
0.53,11.47526662918342,821.7583152993154
0.531,11.482319658561696,821.9962559893289
0.532,11.48937689605995,822.2342519555666
0.533,11.496438344030585,822.4723031977719
0.534,11.503504004827178,822.7104097156762
0.535,11.510573880804431,822.9485715089946
0.536,11.517647974318093,823.186788577426
0.537,11.524726287725118,823.4250609206571
0.538,11.531808823383491,823.6633885383558
0.539,11.538895583652373,823.9017714301772
0.54,11.545986570892053,824.1402095957616
0.541,11.553081787463864,824.3787030347318
0.542,11.560181235730324,824.6172517466972
0.543,11.56728491805507,824.8558557312521
0.544,11.574392836802796,825.0945149879736
0.545,11.581504994339376,825.3332295164258
0.546,11.588621393031799,825.5719993161571
0.547,11.595742035248115,825.8108243866983
0.548,11.602133469903322,826.0235957241496
0.549,11.60926216876545,826.2625251860592
0.55,11.616395118018048,826.5015099172135
0.551,11.623532320033528,826.7405499170837
0.552,11.630673777185486,826.9796451851281
0.553,11.637819491848637,827.2187957207892
0.554,11.644969466398761,827.4580015234919
0.555,11.652123703212833,827.6972625926485
0.556,11.659282204668882,827.9365789276537
0.557,11.666444973146104,828.1759505278884
0.558,11.673612011024831,828.4153773927177
0.559,11.680783320686446,828.6548595214895
0.56,11.687958904513522,828.8943969135385
0.561,11.695138764889755,829.1339895681829
0.562,11.702322904199896,829.3736374847244
0.563,11.709511324829888,829.6133406624506
0.564,11.716704029166795,829.8530991006334
0.565,11.723901019598745,830.0929127985274
0.566,11.731102298515072,830.3327817553743
0.567,11.738307868306157,830.5727059703975
0.568,11.745517731363549,830.8126854428059
0.569,11.75198896319311,831.0264530377609
0.57,11.75920697714958,831.2665368642337
0.571,11.766429291306737,831.5066759455827
0.572,11.773655908060531,831.7468702809567
0.573,11.78088682980803,831.9871198694884
0.574,11.788122058947373,832.2274247102921
0.575,11.79536159787789,832.4677848024699
0.576,11.802605449000033,832.7082001451066
0.577,11.80985361471532,832.9486707372699
0.578,11.817106097426464,833.1891965780135
0.579,11.824362899537295,833.4297776663756
0.58,11.831624023452719,833.6704140013765
0.581,11.838889471578845,833.9111055820226
0.582,11.84615924632283,834.1518524073023
0.583,11.85343335009303,834.39265447619
0.584,11.860711785298916,834.6335117876449
0.585,11.867994554351041,834.8744243406071
0.586,11.875281659661129,835.1153921340032
0.587,11.882573103642056,835.3564151667442
0.588,11.889868888707745,835.5974934377219
0.589,11.896416960064629,835.812208543336
0.59,11.903720986632292,836.0533911205879
0.591,11.911029361284077,836.2946289326543
0.592,11.918342086438308,836.5359219783641
0.593,11.925659164514533,836.7772702565345
0.594,11.932980597933403,837.0186737659651
0.595,11.940306389116646,837.2601325054374
0.596,11.947636540487203,837.5016464737199
0.597,11.954971054469127,837.7432156695644
0.598,11.962309933487544,837.9848400917039
0.599,11.969653179968802,838.2265197388587
0.6,11.977000796340297,838.46825460973
0.601,11.984352785030614,838.7100447030045
0.602,11.991709148469484,838.9518900173533
0.603,11.999069889087695,839.1937905514293
0.604,12.006435009317235,839.4357463038696
0.605,12.01380451159124,839.6777572732975
0.606,12.021178398343897,839.9198234583158
0.607,12.028556672010598,840.1619448575135
0.608,12.035178505713985,840.3775587651203
0.609,12.042565107712122,840.6197844138877
0.61,12.049956103685503,840.8620652725212
0.611,12.05735149607394,841.1044013395466
0.612,12.064751287318401,841.3467926134736
0.613,12.072155479860896,841.589239092792
0.614,12.079564076144658,841.8317407759791
0.615,12.08697707861405,842.0742976614948
0.616,12.094394489714501,842.31690974778
0.617,12.101816311892675,842.5595770332634
0.618,12.109242547596272,842.8022995163523
0.619,12.116673199274214,843.0450771954415
0.62,12.124108269376533,843.2879100689081
0.621,12.13154776035437,843.5307981351117
0.622,12.138991674660035,843.7737413923958
0.623,12.146440014746995,844.0167398390887
0.624,12.15389278306979,844.2597934734996
0.625,12.161349982084156,844.5029022939232
0.626,12.168042385661346,844.7193663581771
0.627,12.175507995945196,844.9625793640918
0.628,12.182978044040686,845.2058475508478
0.629,12.190452532407994,845.4491709166745
0.63,12.19793146350843,845.6925494597845
0.631,12.205414839804398,845.9359831783725
0.632,12.212902663759522,846.1794720706183
0.633,12.220394937838476,846.4230161346828
0.634,12.227891664507144,846.666615368712
0.635,12.235392846232553,846.9102697708348
0.636,12.242898485482794,847.1539793391612
0.637,12.25040858472719,847.3977440717878
0.638,12.257923146436173,847.6415639667919
0.639,12.265442173081285,847.8854390222343
0.64,12.27296566713525,848.1293692361597
0.641,12.280493631071943,848.3733546065954
0.642,12.288026067366324,848.6173951315512
0.643,12.295562978494578,848.8614908090223
0.644,12.302326649284018,849.0788039031595
0.645,12.309872055306744,849.323003691772
0.646,12.317421943342463,849.5672586268531
0.647,12.324976315871798,849.8115687063312
0.648,12.332535175376503,850.0559339281174
0.649,12.340098524339433,850.3003542901033
0.65,12.347666365244649,850.5448297901668
0.651,12.355238700577289,850.789360426165
0.652,12.36281553282369,851.0339461959411
0.653,12.370396864471346,851.2785870973208
0.654,12.377982698008816,851.5232831281107
0.655,12.385573035925892,851.7680342861017
0.656,12.393167880713492,852.0128405690689
0.657,12.400767234863613,852.2577019747657
0.658,12.408371100869482,852.5026185009337
0.659,12.415979481225467,852.7475901452946
0.66,12.423592378426997,852.9926169055516
0.661,12.431209794970771,853.2376987793933
0.662,12.43804543595388,853.455859680424
0.663,12.445671431706494,853.701045580595
0.664,12.453301954039762,853.9462865874149
0.665,12.460937005454808,854.1915826985042
0.666,12.468576588453917,854.4369339114666
0.667,12.476220705540445,854.6823402238855
0.668,12.483869359218996,854.9278016333312
0.669,12.49152255199522,855.1733181373523
0.67,12.499180286376001,855.4188897334831
0.671,12.506842564869356,855.6645164192397
0.672,12.514509389984394,855.9101981921189
0.673,12.52218076423143,856.155935049602
0.674,12.52985669012195,856.4017269891541
0.675,12.537537170168498,856.6475740082187
0.676,12.545222206884853,856.8934761042249
0.677,12.552911802785935,857.1394332745847
0.678,12.560605960387761,857.3854455166896
0.679,12.567510200417493,857.6044056163624
0.68,12.575213017466098,857.850521794928
0.681,12.582920403510112,858.09669303745
0.682,12.59063236107003,858.3429193412509
0.683,12.598348892667566,858.5892007036387
0.684,12.606070000825579,858.8355371219031
0.685,12.613795688068022,859.0819285933146
0.686,12.621525956920093,859.3283751151291
0.687,12.629260809908045,859.5748766845809
0.688,12.637000249559357,859.8214332988894
0.689,12.644744278402651,860.0680449552558
0.69,12.652492898967646,860.314711650862
0.691,12.660246113785275,860.5614333828736
0.692,12.66800392538763,860.808210148439
0.693,12.675766336307895,861.0550419446861
0.694,12.683533349080454,861.3019287687274
0.695,12.691304966240871,861.5488706176577
0.696,12.698278441744232,861.7686286539858
0.697,12.70605879920777,862.0156743398413
0.698,12.713843768410104,862.2627750419233
0.699,12.721633351891294,862.5099307572572
0.7,12.729427552192476,862.757141482847
0.701,12.73722637185604,863.0044072156826
0.702,12.745029813425438,863.2517279527331
0.703,12.752837879445346,863.4991036909506
0.704,12.760650572461596,863.7465344272708
0.705,12.768467895021107,863.9940201586079
0.706,12.776289849672029,864.2415608818602
0.707,12.78411643896366,864.4891565939091
0.708,12.791947665446392,864.7368072916142
0.709,12.799783531671848,864.9845129718212
0.71,12.807624040192797,865.2322736313549
0.711,12.815469193563102,865.4800892670225
0.712,12.822508392296715,865.7005967591641
0.713,12.83036236260739,865.9485161291208
0.714,12.8382209851716,866.1964904657179
0.715,12.846084262547718,866.4445197656905
0.716,12.853952197295357,866.6926040257579
0.717,12.861824791975268,866.9407432426203
0.718,12.869702049149316,867.1889374129584
0.719,12.877583971380592,867.4371865334364
0.72,12.885470561233278,867.6854906006986
0.721,12.893361821272775,867.9338496113724
0.722,12.90125775406564,868.1822635620666
0.723,12.909158362179522,868.4307324493697
0.724,12.917063648183307,868.6792562698544
0.725,12.92497361464703,868.9278350200744
0.726,12.932888264141832,869.1764686965633
0.727,12.939989570377291,869.3976773218438
0.728,12.947913109128255,869.6464146283968
0.729,12.955841338364412,869.8952068509324
0.73,12.963774260661431,870.1440539859121
0.731,12.971711878596187,870.392956029781
0.732,12.979654194746745,870.6419129789649
0.733,12.987601211692233,870.8909248298701
0.734,12.995552932013032,871.1399915788855
0.735,13.003509358290676,871.389113222382
0.736,13.011470493107796,871.6382897567095
0.737,13.019436339048275,871.8875211782017
0.738,13.027406898697066,872.1368074831717
0.739,13.035382174640363,872.3861486679156
0.74,13.043362169465517,872.6355447287101
0.741,13.051346885760966,872.8849956618125
0.742,13.059336326116394,873.1345014634626
0.743,13.066504466352585,873.3564570265397
0.744,13.074502873668951,873.6060663383503
0.745,13.082506012552782,873.8557305075601
0.746,13.090513885598304,874.105449530337
0.747,13.098526495400879,874.3552234028283
0.748,13.10654384455699,874.6050521211613
0.749,13.114565935664345,874.8549356814459
0.75,13.122592771321818,875.1048740797737
0.751,13.13062435412938,875.3548673122151
0.752,13.138660686688233,875.6049153748231
0.753,13.146701771600748,875.8550182636332
0.754,13.154747611470391,876.1051759746583
0.755,13.162798208901894,876.3553885038957
0.756,13.170853566501044,876.605655847321
0.757,13.178913686874886,876.8559780008927
0.758,13.18614498253279,877.0786322064729
0.759,13.1942141431861,877.3290577495441
0.76,13.20228807417183,877.5795380907979
0.761,13.210366778101498,877.8300732261164
0.762,13.21845025758787,878.0806631513653
0.763,13.226538515244794,878.3313078623887
0.764,13.234631553687354,878.5820073550137
0.765,13.242729375531804,878.8327616250483
0.766,13.250831983395488,879.0835706682783
0.767,13.258939379896997,879.3344344804735
0.768,13.267051567656095,879.5853530573846
0.769,13.275168549293625,879.8363263947393
0.77,13.283290327431713,880.0873544882512
0.771,13.291416904693545,880.3384373336094
0.772,13.298707577721757,880.5617420780645
0.773,13.306843264098545,880.8129281930125
0.774,13.314983757203734,881.0641690470688
0.775,13.323129059665154,881.3154646358507
0.776,13.331279174111716,881.5668149549534
0.777,13.3394341031736,881.8182199999561
0.778,13.347593849482074,882.069679766416
0.779,13.355758415669627,882.3211942498723
0.78,13.363927804369933,882.5727634458452
0.781,13.372102018217758,882.8243873498325
0.782,13.380281059849112,883.0760659573158
0.783,13.388464931901185,883.3277992637567
0.784,13.396653637012246,883.5795872645942
0.785,13.40484717782183,883.8314299552516
0.786,13.413045556970625,884.0833273311317
0.787,13.420400378050372,884.3073281484827
0.788,13.428607940574366,884.5593286574588
0.789,13.436820349092597,884.8113838380758
0.79,13.445037606250324,885.06349368566
0.791,13.453259714693907,885.3156581955159
0.792,13.461486677070956,885.5678773629312
0.793,13.469718496030243,885.8201511831724
0.794,13.477955174221648,886.072479651485
0.795,13.486196714296321,886.3248627630983
0.796,13.494443118906485,886.5773005132178
0.797,13.502694390705615,886.8297928970323
0.798,13.510950532348346,887.0823399097098
0.799,13.519211546490428,887.3349415463969
0.8,13.527477435788846,887.5875978022231
0.801,13.534892565985404,887.8122466494892
0.802,13.543167708374757,888.06500590352
0.803,13.551447733622583,888.3178197623112
0.804,13.559732644390452,888.5706882209141
0.805,13.568022443341103,888.8236112743599
0.806,13.576317133138378,889.0765889176579
0.807,13.584616716447366,889.3296211458002
0.808,13.592921195934329,889.5827079537578
0.809,13.601230574266625,889.8358493364794
0.81,13.609544854112883,890.0890452888976
0.811,13.617864038142885,890.3422958059236
0.812,13.626188129027518,890.5956008824459
0.813,13.634517129438951,890.8489605133368
0.814,13.642851042050427,891.1023746934451
0.815,13.650326935191815,891.3276702790736
0.816,13.65867017103584,891.5811873151081
0.817,13.667018326829295,891.8347588851753
0.818,13.675371405250084,892.0883849840483
0.819,13.6837294089772,892.3420656064761
0.82,13.692092340690923,892.5958007471925
0.821,13.70046020307261,892.8495904009069
0.822,13.708832998804862,893.10343456231
0.823,13.717210730571464,893.3573332260739
0.824,13.725593401057305,893.6112863868473
0.825,13.733981012948519,893.8652940392604
0.826,13.742373568932424,894.1193561779237
0.827,13.75077107169743,894.3734727974247
0.828,13.758303763604562,894.5993673418069
0.829,13.766710655077967,894.8535866784779
0.83,13.775122501125773,895.1078604800433
0.831,13.783539304440993,895.3621887410113
0.832,13.79196106771787,895.6165714558713
0.833,13.800387793651856,895.8710086190925
0.834,13.808819484939495,896.1255002251218
0.835,13.8172561442786,896.3800462683882
0.836,13.825697774368079,896.6346467432973
0.837,13.834144377908089,896.8893016442361
0.838,13.842595957599956,897.1440109655708
0.839,13.851052516146124,897.3987747016454
0.84,13.859514056250278,897.6535928467852
0.841,13.867103942254765,897.8800851476433
0.842,13.875574936911182,898.1350058646675
0.843,13.884050920962757,898.3899809740428
0.844,13.892531897117777,898.6450104700132
0.845,13.901017868085706,898.9000943468021
0.846,13.909508836577118,899.155232598611
0.847,13.918004805303854,899.4104252196224
0.848,13.926505776978912,899.6656722039979
0.849,13.935011754316417,899.920973545876
0.85,13.943522740031733,900.1763292393764
0.851,13.952038736841418,900.4317392785987
0.852,13.960559747463137,900.687203657619
0.853,13.969085774615818,900.9427223704951
0.854,13.97761682101949,901.198295411261
0.855,13.985268780992225,901.4254304647943
0.856,13.993809353310109,901.6811059135132
0.857,14.00235495276361,901.9368356725689
0.858,14.010905582077433,902.192619735916
0.859,14.019461243977387,902.4484580974865
0.86,14.028021941190556,902.7043507511936
0.861,14.036587676445116,902.9602976909267
0.862,14.045158452470488,903.2162989105564
0.863,14.053734271997289,903.4723544039318
0.864,14.062315137757237,903.7284641648797
0.865,14.07090105248331,903.9846281872071
0.866,14.079492018909665,904.2408464647001
0.867,14.087197487729155,904.4685304954932
0.868,14.09579804150131,904.7248510343775
0.869,14.104403654898983,904.9812258101445
0.87,14.113014330660935,905.2376548164982
0.871,14.121630071527042,905.4941380471174
0.872,14.13025088023845,905.750675495664
0.873,14.138876759537464,906.0072671557767
0.874,14.147507712167512,906.2639130210722
0.875,14.156143740873288,906.5206130851466
0.876,14.164784848400652,906.777367341576
0.877,14.173431037496588,907.0341757839125
0.878,14.18208231090936,907.291038405689
0.879,14.190738671388313,907.5479552004148
0.88,14.19850253325732,907.7762331158897
0.881,14.20716854803277,908.0332520066354
0.882,14.215839657843812,908.2903250512506
0.883,14.224515865444467,908.5474522431631
0.884,14.233197173589895,908.8046335757762
0.885,14.24188358503652,909.0618690424759
0.886,14.250575102541863,909.3191586366223
0.887,14.259271728864702,909.5765023515575
0.888,14.26797346676499,909.8339001806004
0.889,14.27668031900381,910.0913521170477
0.89,14.285392288343493,910.3488581541752
0.891,14.294109377547553,910.6064182852384
0.892,14.301927462727795,910.8352427684166
0.893,14.310654268315346,911.0929048368404
0.894,14.319386201777377,911.3506209793732
0.895,14.328123265882022,911.6083911891844
0.896,14.33686546339853,911.86621545942
0.897,14.34561279709741,912.1240937832071
0.898,14.354365269750362,912.3820261536499
0.899,14.363122884130199,912.6400125638306
0.9,14.371885643011003,912.8980530068088
0.901,14.380653549167969,913.1561474756231
0.902,14.389426605377528,913.4142959632901
0.903,14.398204814417314,913.6724984628052
0.904,14.406077468349897,913.9018683020033
0.905,14.414865456175164,914.1601725743151
0.906,14.423658604881513,914.4185308378931
0.907,14.432456917251224,914.6769430856477
0.908,14.441260396067667,914.9354093104647
0.909,14.450069044115466,915.1939295052098
0.91,14.458882864180438,915.4525036627265
0.911,14.467701859049516,915.7111317758337
0.912,14.47652603151088,915.9698138373308
0.913,14.485355384353921,916.2285498399958
0.914,14.494189920369118,916.4873397765809
0.915,14.503029642348235,916.7461836398192
0.916,14.51095721217278,916.976097586862
0.917,14.519806775654562,917.235043052357
0.918,14.528661533191968,917.4940424231617
0.919,14.537521487581376,917.7530956919218
0.92,14.546386641620364,918.0122028512618
0.921,14.555256998107605,918.2713638937809
0.922,14.564132559843053,918.5305788120585
0.923,14.573013329627843,918.7898475986515
0.924,14.581899310264228,919.0491702460931
0.925,14.59079050455575,919.3085467468958
0.926,14.599686915307029,919.5679770935473
0.927,14.608588545323954,919.8274612785153
0.928,14.616571379878756,920.057918048319
0.929,14.625482914430938,920.3175036589598
0.93,14.634399676381376,920.5771430858031
0.931,14.643321668540525,920.8368363212263
0.932,14.652248893720133,921.0965833575882
0.933,14.661181354733008,921.3563841872206
0.934,14.670119054393247,921.616238802436
0.935,14.679061995516143,921.8761471955245
0.936,14.688010180918086,922.136109358751
0.937,14.69696361341673,922.3961252843588
0.938,14.705922295830934,922.6561949645708
0.939,14.714886230980659,922.9163183915825
0.94,14.722924680803004,923.1473166617498
0.941,14.731898583836237,923.4075413317394
0.942,14.740877747778523,923.667819725636
0.943,14.74986217545445,923.9281518355477
0.944,14.75885186968989,924.1885376535628
0.945,14.767846833311898,924.4489771717455
0.946,14.776847069148644,924.7094703821356
0.947,14.785852580029575,924.970017276753
0.948,14.794863368785304,925.2306178475932
0.949,14.803879438247577,925.4912720866274
0.95,14.812900791249437,925.7519799858072
0.951,14.820990490302872,925.9834729958352
0.952,14.830021869488446,926.2442819652055
0.953,14.839058540424505,926.5051445711026
0.954,14.848100505948715,926.7660608053884
0.955,14.85714776889983,927.027030659898
0.956,14.866200332117893,927.2880541264465
0.957,14.875258198444117,927.5491311968258
0.958,14.88432137072084,927.8102618628021
0.959,14.893389851791659,928.0714461161217
0.96,14.902463644501374,928.3326839485064
0.961,14.911542751695896,928.593975351654
0.962,14.919683996781131,928.8259619304577
0.963,14.928773188724664,929.0873542257706
0.964,14.93786770340149,929.3488000675004
0.965,14.946967543662165,929.6102994472541
0.966,14.956072712358496,929.8718523566164
0.967,14.965183212343504,930.1334587871503
0.968,14.974299046471307,930.3951187303921
0.969,14.983420217597303,930.6568321778587
0.97,14.992546728578064,930.9185991210412
0.971,15.001678582271305,931.1804195514072
0.972,15.010815781536008,931.4422934604023
0.973,15.019958329232264,931.7042208394472
0.974,15.028156191480496,931.9367449673401
0.975,15.037308888168843,932.1987730381721
0.976,15.046466941578169,932.460854553902
0.977,15.055630354573275,932.7229895058604
0.978,15.064799130020068,932.9851778853517
0.979,15.073973270785778,933.2474196836612
0.98,15.083152779738697,933.509714892046
0.981,15.092337659748395,933.7720635017427
0.982,15.101527913685645,934.0344655039647
0.983,15.110723544422324,934.296920889899
0.984,15.119924554831579,934.5594296507105
0.985,15.128174588171904,934.7924448018097
0.986,15.13738580669339,935.0550540652523
0.987,15.146602413214344,935.3177166776732
0.988,15.155824410612581,935.5804326301464
0.989,15.16505180176708,935.8432019137213
0.99,15.174284589557933,936.1060245194207
0.991,15.183522776866527,936.368900438246
0.992,15.192766366575421,936.6318296611769
0.993,15.202015361568295,936.8948121791639
0.994,15.211269764730094,937.1578479831383
0.995,15.219567441738214,937.3913079432517
0.996,15.228832106936357,937.6544440733459
0.997,15.238102188664424,937.9176334628438
0.998,15.247377689812016,938.1808761025835
0.999,15.256658613269918,938.4441719833767
1.0,15.265944961930048,938.7075210960114
1.001,15.275236738685567,938.9709234312521
1.002,15.284533946430857,939.2343789798401
1.003,15.293836588061394,939.4978877324892
1.004,15.30314466647396,939.7614496798943
1.005,15.312458184566433,940.0250648127216
1.006,15.320808607854348,940.2590133582559
1.007,15.3301324476096,940.5227286176814
1.008,15.339461735443379,940.7864970351877
1.009,15.348796474258195,941.0503186013469
1.01,15.358136666957845,941.31419330671
1.011,15.367482316447319,941.5781211418029
1.012,15.376833425632697,941.8421020971246
1.013,15.386189997421358,942.1061361631525
1.014,15.395552034721868,942.3702233303408
1.015,15.404919540443899,942.6343635891147
1.016,15.41331813192919,942.8687546776604
1.017,15.422696013698024,943.1329948770182
1.018,15.432079372321116,943.3972881399244
1.019,15.441468210712783,943.66163445671
1.02,15.45086253178863,943.9260338176848
1.021,15.460262338465446,944.1904862131335
1.022,15.469667633661132,944.4549916333135
1.023,15.479078420294876,944.7195500684617
1.024,15.48849470128705,944.9841615087893
1.025,15.49791647955913,945.2488259444798
1.026,15.507343758033908,945.5135433656963
1.027,15.515795675730917,945.7484204897045
1.028,15.525233390385427,946.0132376414203
1.029,15.534676613712817,946.2781077498458
1.03,15.544125348640494,946.5430308050481
1.031,15.553579598097066,946.8080067970685
1.032,15.56303936501224,947.0730357159205
1.033,15.572504652317036,947.3381175515971
1.034,15.581975462943555,947.6032522940632
1.035,15.591451799825176,947.8684399332618
1.036,15.600933665896465,948.1336804591093
1.037,15.609434280625923,948.3689977572639
1.038,15.6189266377209,948.6343378179092
1.039,15.628424532509834,948.8997307356773
1.04,15.637927967931985,949.1651765003897
1.041,15.647436946927673,949.4306751018396
1.042,15.65695147243851,949.6962265297981
1.043,15.666471547407296,949.9618307740113
1.044,15.675997174777937,950.2274878241972
1.045,15.685528357495622,950.4931976700512
1.046,15.695065098506735,950.758960301245
1.047,15.703614663479119,950.9947166093098
1.048,15.713161950576712,951.2605785749229
1.049,15.722714804506163,951.5264932956323
1.05,15.732273228218505,951.7924607610114
1.051,15.741837224665868,952.0584809606052
1.052,15.75140679680168,952.3245538839365
1.053,15.760981947580538,952.5906795205027
1.054,15.770562679958179,952.8568578597738
1.055,15.780148996891578,953.1230888911963
1.056,15.789740901338945,953.3893726041928
1.057,15.798339670737855,953.625566733976
1.058,15.807942176553347,953.8919495762963
1.059,15.817550278455347,954.1583850692236
1.06,15.827163979406679,954.4248732020812
1.061,15.836783282371295,954.6914139641633
1.062,15.846408190314461,954.9580073447445
1.063,15.856038706202494,955.2246533330679
1.064,15.865674833003016,955.4913519183559
1.065,15.87531657368483,955.7581030898039
1.066,15.88496393121785,956.0249068365802
1.067,15.893612160199227,956.2615375757237
1.068,15.903270174600824,956.5284402419685
1.069,15.912933814460345,956.7953954518467
1.07,15.922603082752358,957.0624031944271
1.071,15.932277982452705,957.3294634587552
1.072,15.941958516538417,957.5965762338499
1.073,15.951644687987631,957.8637415087035
1.074,15.96133649977977,958.1309592722837
1.075,15.971033954895445,958.3982295135332
1.076,15.980737056316375,958.665552221367
1.077,15.989435001007578,958.9026183331313
1.078,15.999148815016193,959.1700397457745
1.079,16.00886828397087,959.4375135925698
1.08,16.018593410857996,959.7050398623321
1.081,16.028324198665203,959.9726185438508
1.082,16.03806065038132,960.240249625892
1.083,16.04780276899631,960.5079330971913
1.084,16.057550557501383,960.7756689464616
1.085,16.067304018888954,961.0434571623899
1.086,16.07706315615255,961.3112977336347
1.087,16.085811073651314,961.5487979566818
1.088,16.095580979440296,961.8167370132297
1.089,16.105356569780206,962.0847283919195
1.09,16.1151378476692,962.3527720813079
1.091,16.124924816106727,962.6208680699294
1.092,16.134717478093428,962.8890163462911
1.093,16.14451583663104,963.1572168988712
1.094,16.154319894722622,963.4254697161267
1.095,16.164129655372296,963.6937747864833
1.096,16.17292271600275,963.9316640884194
1.097,16.182743295649196,964.2000674425459
1.098,16.192569586559244,964.4685230159241
1.099,16.202401591741737,964.7370307968814
1.1,16.212239314206645,965.0055907737159
1.101,16.222082756965236,965.2742029347017
1.102,16.231931923029855,965.5428672680853
1.103,16.241786815414127,965.8115837620877
1.104,16.25164743713288,966.080352404904
1.105,16.26151379120202,966.3491731847007
1.106,16.270357315521334,966.5874941340592
1.107,16.28023454493977,966.8564129687963
1.108,16.290117515448184,967.1253839059098
1.109,16.300006230067133,967.3944069334614
1.11,16.30990069181847,967.6634820394909
1.111,16.319800903725216,967.9326092120111
1.112,16.32970686881152,968.2017884390054
1.113,16.33961859010278,968.4710197084332
1.114,16.349536070625625,968.7403030082274
1.115,16.358425180893594,968.9790107795285
1.116,16.368353587609736,969.2483919242769
1.117,16.378287762327542,969.5178250640994
1.118,16.388227708078265,969.7873101868246
1.119,16.398173427894257,970.0568472802516
1.12,16.40812492480913,970.3264363321559
1.121,16.41808220185771,970.5960773302868
1.122,16.428045262075923,970.8657702623628
1.123,16.43801410850099,971.1355151160797
1.124,16.446949015435234,971.3746086121403
1.125,16.456928839073914,971.6444510967773
1.126,16.46691445772009,971.914345467071
1.127,16.476905874415614,972.1842917106114
1.128,16.486903092203494,972.4542898149626
1.129,16.496906114127874,972.7243397676577
1.13,16.506914943234186,972.9944415562074
1.131,16.516929582568928,973.2645951680904
1.132,16.5269500351799,973.5348005907629
1.133,16.535930950198516,973.7742786957733
1.134,16.545962431219493,974.0445815312465
1.135,16.55599973434799,974.3149361408308
1.136,16.566042862636337,974.5853425118731
1.137,16.576091819138174,974.8558006316968
1.138,16.586146606908216,975.1263104875943
1.139,16.596207229002452,975.396872066834
1.14,16.60627368847806,975.6674853566568
1.141,16.616345988393316,975.9381503442736
1.142,16.62537312361371,976.1780119236482
1.143,16.635456503311342,976.4487741018321
1.144,16.645545732310495,976.7195879404303
1.145,16.655640813674076,976.9904534265481
1.146,16.66574175046627,977.261370547265
1.147,16.67584854575245,977.5323392896332
1.148,16.6859612025991,977.8033596406756
1.149,16.696079724073964,978.0744315873897
1.15,16.706204113245988,978.3455551167447
1.151,16.71527768148399,978.5857990169792
1.152,16.725413201986584,978.8570195105186
1.153,16.735554599078633,979.1282915486102
1.154,16.745701875833706,979.3996151181163
1.155,16.755855035326473,979.6709902058698
1.156,16.76601408063288,979.9424167986781
1.157,16.776179014830042,980.2138948833209
1.158,16.78634984099621,980.4854244465478
1.159,16.796526562210882,980.7570054750842
1.16,16.805646776979632,980.9976305236082
1.161,16.815834681248838,981.2693082857691
1.162,16.826028489489346,981.5410374744359
1.163,16.836228204785286,981.8128180762258
1.164,16.846433830221972,982.0846500777269
1.165,16.856645368885818,982.3565334654973
1.166,16.866862823864547,982.6284682260718
1.167,16.87708619824696,982.9004543459514
1.168,16.8873154951231,983.1724918116138
1.169,16.896482570631907,983.4134968166431
1.17,16.906723102461974,983.6856307811544
1.171,16.9169695657391,983.9578160519291
1.172,16.927221963557884,984.2300526153326
1.173,16.93748029901422,984.5023404577059
1.174,16.947744575205085,984.774679565359
1.175,16.958014795228706,985.0470699245748
1.176,16.968290962184522,985.3195115216091
1.177,16.978573079173046,985.5920043426879
1.178,16.987787230326244,985.8333880930778
1.179,16.998080634343463,986.1059771739854
1.18,17.00837999737718,986.3786174386939
1.181,17.01868532253255,986.6513088733188
1.182,17.028996612915982,986.9240514639503
1.183,17.039313871635073,987.1968451966488
1.184,17.049637101798513,987.4696900574453
1.185,17.059966306516277,987.7425860323442
1.186,17.06922242183143,987.9843048400828
1.187,17.079562959945168,988.2572968590335
1.188,17.08990948162393,988.5303399511939
1.189,17.10026198998229,988.8034341024578
1.19,17.110620488136007,989.0765792986904
1.191,17.120984979201946,989.3497755257275
1.192,17.131355466298228,989.6230227693768
1.193,17.141731952544163,989.8963210154188
1.194,17.152114441060167,990.1696702496025
1.195,17.161418039558516,990.4117654630915
1.196,17.171811913875654,990.6852104942005
1.197,17.182211799504035,990.9587064718262
1.198,17.192617699568668,991.2322533816051
1.199,17.203029617195835,991.5058512091493
1.2,17.21344755551301,991.7794999400414
1.201,17.223871517648746,992.0531995598333
1.202,17.234301506732884,992.3269500540499
1.203,17.243647432181685,992.5693782156743
1.204,17.254088853727165,992.8432242837921
1.205,17.264536311289067,993.1171211840498
1.206,17.274989808001834,993.3910689018605
1.207,17.285449347001062,993.6650674226073
1.208,17.295914931423468,993.939116731644
1.209,17.306386564407035,994.2132168142967
1.21,17.316864249090912,994.4873676558622
1.211,17.326252672835302,994.7301277519938
1.212,17.33674183677814,995.0043739409908
1.213,17.34723706151623,995.2786708459543
1.214,17.357738350193323,995.553018452069
1.215,17.368245705954276,995.827416744487
1.216,17.37875913194522,996.1018657083357
1.217,17.389278631313374,996.3763653287101
1.218,17.39980420720721,996.6509155906774
1.219,17.410335862776382,996.9255164792769
1.22,17.419772373345484,997.1686494129617
1.221,17.43031556106322,997.4433453897361
1.222,17.440864837581476,997.7180919494439
1.223,17.45142020605454,997.9928890770108
1.224,17.461981669637744,998.2677367573302
1.225,17.472549231487694,998.5426349752684
1.226,17.483122894762165,998.8175837156618
1.227,17.49370266262003,999.0925829633161
1.228,17.503182037476645,999.3360456292672
1.229,17.51377338457258,999.6111397312244
1.23,17.52437084540407,999.8862842960764
1.231,17.534974423134575,1000.1614793085124
1.232,17.545584120928805,1000.4367247531967
1.233,17.556199941952677,1000.7120206147624
1.234,17.566821889373173,1000.9873668778125
1.235,17.57744996635854,1001.2627635269208
1.236,17.586972378349444,1001.5065548673034
1.237,17.597612081799372,1001.7820461333264
1.238,17.60825792399305,1002.0575877403625
1.239,17.618909908103326,1002.3331796728716
1.24,17.629568037304207,1002.6088219152829
1.241,17.640232314770795,1002.8845144519938
1.242,17.650902743679445,1003.1602572673753
1.243,17.661579327207697,1003.436050345767
1.244,17.671144949657954,1003.6801692884134
1.245,17.681833207013906,1003.9560567427865
1.246,17.69252762819512,1004.2319944144444
1.247,17.70322821638371,1004.5079822876116
1.248,17.71393497476288,1004.7840203464793
1.249,17.724647906517067,1005.060108575212
1.25,17.735367014831933,1005.3362469579441
1.251,17.746092302894183,1005.6124354787784
1.252,17.7557013096061,1005.8568809370917
1.253,17.766438318995842,1006.1331635894109
1.254,17.777181517365463,1006.409496333423
1.255,17.78793090790626,1006.6858791531134
1.256,17.798686493810763,1006.9623120324388
1.257,17.809448278272708,1007.2387949553269
1.258,17.820216264486902,1007.5153279056717
1.259,17.830990455649403,1007.7919108673415
1.26,17.84064302090145,1008.0366817401994
1.261,17.85142898102759,1008.3133585852677
1.262,17.862221155361148,1008.5900853945591
1.263,17.873019547102757,1008.8668621518232
1.264,17.88382415945422,1009.1436888407778
1.265,17.89463499561841,1009.4205654451102
1.266,17.905452058799515,1009.6974919484782
1.267,17.916275352202746,1009.9744683345072
1.268,17.925971650748437,1010.2195635061657
1.269,17.936806760887507,1010.4966335238919
1.27,17.947648110534537,1010.7737533764856
1.271,17.958495702899405,1011.0509230474562
1.272,17.96934954119305,1011.3281425202796
1.273,17.980209628627712,1011.6054117784046
1.274,17.99107596841668,1011.8827308052462
1.275,18.001948563774494,1012.1600995841915
1.276,18.011688770841296,1012.4055179241881
1.277,18.022573230843097,1012.682980079491
1.278,18.033463955726212,1012.9604919384047
1.279,18.044360948709624,1013.2380534841943
1.28,18.055264213013647,1013.5156647000972
1.281,18.06617375185961,1013.793325569317
1.282,18.07708956847011,1014.0710360750292
1.283,18.086868266362206,1014.316735616086
1.284,18.09779598956761,1014.5945392721098
1.285,18.10872999987323,1014.8723925155188
1.286,18.119670300506108,1015.1502953293648
1.287,18.130616894694583,1015.4282476966739
1.288,18.141569785668032,1015.7062496004365
1.289,18.152528976657095,1015.9843010236153
1.29,18.163494470893568,1016.2624019491417
1.291,18.173317406838006,1016.5084225006505
1.292,18.184294855831503,1016.7866163142681
1.293,18.195278617434532,1017.0648595804153
1.294,18.206268694883477,1017.3431522819037
1.295,18.217265091415737,1017.6214944015097
1.296,18.22826781026998,1017.8998859219824
1.297,18.23927685468604,1018.178326826039
1.298,18.2502922279048,1018.4568170963621
1.299,18.260159578484224,1018.7031574850297
1.3,18.271186954757344,1018.981740377516
1.301,18.282220669221918,1019.260372585742
1.302,18.29326072512338,1019.5390540922692
1.303,18.30430712570841,1019.8177848796314
1.304,18.315359874224853,1020.0965649303298
1.305,18.326418973921612,1020.3753942268318
1.306,18.336325258389795,1020.6220128697032
1.307,18.347396403431063,1020.9009345530156
1.308,18.358473909064507,1021.1799054309786
1.309,18.369557778543555,1021.4589254859371
1.31,18.3806480151229,1021.7379947002083
1.311,18.391744622058383,1022.0171130560758
1.312,18.402847602606908,1022.2962805357913
1.313,18.413956960026656,1022.5754971215756
1.314,18.42390799118978,1022.8224333627222
1.315,18.43502944250399,1023.1017420623763
1.316,18.446157280127586,1023.3810998162221
1.317,18.45729150732324,1023.6605066063581
1.318,18.46843212735479,1023.9399624148514
1.319,18.479579143487136,1024.2194672237342
1.32,18.490732558986423,1024.499021015009
1.321,18.50072281472095,1024.74623353016
1.322,18.511888366625016,1025.0258791937893
1.323,18.523060327357207,1025.3055737873003
1.324,18.534238700188187,1025.585317292571
1.325,18.545423488389773,1025.8651096914498
1.326,18.55661469523483,1026.1449509657493
1.327,18.567812323997487,1026.4248410972534
1.328,18.579016377953018,1026.7047800677133
1.329,18.58905171408023,1026.9523078886275
1.33,18.60026795324204,1027.2323384513986
1.331,18.611490627084226,1027.5124177998832
1.332,18.622719738886573,1027.7925459157084
1.333,18.633955291929894,1028.0727227804662
1.334,18.645197289496288,1028.352948375719
1.335,18.656445734868992,1028.6332226829986
1.336,18.66652058767573,1028.8810247505824
1.337,18.67778126098429,1029.1613904024177
1.338,18.689048391609592,1029.4418047123947
1.339,18.700321982839352,1029.7222676619183
1.34,18.71160203796236,1030.0027792323588
1.341,18.722888560268633,1030.283339405056
1.342,18.734181553049368,1030.5639481613189
1.343,18.744296059198973,1030.8120235140789
1.344,18.755601322747065,1031.0927233642085
1.345,18.766913066302934,1031.3734717433742
1.346,18.77823129316224,1031.654268632756
1.347,18.789556006621687,1031.9351140135022
1.348,18.800887209979248,1032.2160078667293
1.349,18.81222490653402,1032.4969501735216
1.35,18.822379202996952,1032.7452978395359
1.351,18.833729213252287,1033.0263309865538
1.352,18.845085726261022,1033.3074125319583
1.353,18.856448745326723,1033.5885424567061
1.354,18.867818273754022,1033.869720741719
1.355,18.879194314848824,1034.150947367891
1.356,18.890576871918057,1034.4322223160784
1.357,18.900771095971027,1034.680841312941
1.358,18.912166009775564,1034.9622068447454
1.359,18.923567449133575,1035.2436206427349
1.36,18.934975417356544,1035.525082687641
1.361,18.946389917757,1035.8065929601596
1.362,18.95781095364875,1036.0881514409587
1.363,18.969238528346622,1036.369758110668
1.364,18.98067264516667,1036.651412949888
1.365,18.990912756631104,1036.900341530921
1.366,19.00235927958731,1037.182086656329
1.367,19.013812354270797,1037.4638798946642
1.368,19.025271984001982,1037.7457212263964
1.369,19.036738172102567,1038.0276106319648
1.37,19.04821092189524,1038.3095480917723
1.371,19.059690236703947,1038.5915335861919
1.372,19.069970571251492,1038.8407313553405
1.373,19.08146233544804,1039.1228068729145
1.374,19.09296067428844,1039.4049303678564
1.375,19.10446559110098,1039.687101820407
1.376,19.115977089215207,1039.9693212107768
1.377,19.127495171961694,1040.25158851914
1.378,19.139019842672244,1040.53390372564
1.379,19.14934053853684,1040.783369667136
1.38,19.16087770198772,1041.0657746307359
1.381,19.172421463053137,1041.3482274345645
1.382,19.183971825069225,1041.6307280586318
1.383,19.195528791373402,1041.913276482919
1.384,19.20709236530409,1042.1958726873702
1.385,19.21744767852081,1042.4455669698161
1.386,19.229023782336107,1042.7282527014263
1.387,19.240606503447715,1043.0109861547207
1.388,19.25219584519856,1043.2937673095148
1.389,19.263791810932624,1043.576596145588
1.39,19.27539440399516,1043.8594726426911
1.391,19.28700362773241,1044.1423967805356
1.392,19.297399559484155,1044.3923573224552
1.393,19.309021356644863,1044.6753707157548
1.394,19.320649794172674,1044.9584316906455
1.395,19.332284875418267,1045.2415402267081
1.396,19.34392660373353,1045.5246963034929
1.397,19.35557498247149,1045.807899900515
1.398,19.36723001498621,1046.0911509972555
1.399,19.377666704367638,1046.3413767520915
1.4,19.389334353944758,1046.624716829513
1.401,19.401008667013556,1046.9081043468263
1.402,19.412689646932492,1047.1915392833787
1.403,19.424377297061273,1047.4750216184864
1.404,19.436071620760725,1047.7585513314323
1.405,19.4477726213927,1048.0421284014615
1.406,19.458250207798,1048.2926183117572
1.407,19.469963869231176,1048.5762840846064
1.408,19.481684217334266,1048.8599971540334
1.409,19.493411255473497,1049.1437574991512
1.41,19.505144987016358,1049.42756509904
1.411,19.516885415331462,1049.7114199327486
