TimeMS,Acc,qDot
0.0,8.281048306174878,-0.3654077677251887
0.001,8.287227040524318,703.9365583402476
0.002,8.292886053197174,704.1678912617365
0.003,8.298548857314175,704.3992909279094
0.004,8.304215455315033,704.630757348265
0.005,8.309885849640905,704.8622905322927
0.006,8.315560042734365,705.0938904894723
0.007,8.321764081736092,705.3478512018414
0.008,8.327446232150615,705.579591202455
0.009,8.333132188895876,705.8113980055624
0.01,8.338821954420318,706.0432716206005
0.011,8.34451553117382,706.2752120569985
0.012,8.350212921607698,706.5072193241731
0.013,8.355914128174698,706.7392934315328
0.014,8.362147750803512,706.9937803840285
0.015,8.367856951097254,707.225994677466
0.016,8.37356997511877,707.458275840209
0.017,8.379286825326693,707.6906238816237
0.018,8.385007504181095,707.9230388110651
0.019,8.390732014143483,708.1555206378795
0.02,8.396460357676803,708.3880693714017
0.021,8.402723699652432,708.6430831461245
0.022,8.40846007347003,708.8757722073173
0.023,8.41420028848482,709.1085282041148
0.024,8.419944347165657,709.3413511458107
0.025,8.425692251982841,709.5742410416876
0.026,8.431444005408096,709.8071979010177
0.027,8.437199609914643,710.0402217330642
0.028,8.443492807526688,710.2957629085957
0.029,8.44925647902735,710.5289272088412
0.03,8.455024009267238,710.7621585104732
0.031,8.460795400725448,710.9954568227107
0.032,8.466570655882563,711.2288221547639
0.033,8.472349777220572,711.462254515831
0.034,8.478132767222927,711.6957539151001
0.035,8.484455957332756,711.951823066461
0.036,8.490247051191878,712.1854630733824
0.037,8.49604202140512,712.4191701469482
0.038,8.501840870461862,712.6529442963035
0.039,8.507643600852946,712.8867855305824
0.04,8.513450215070675,713.1206938589095
0.041,8.519260715608793,713.3546692903977
0.042,8.525614035651389,713.6112669890064
0.043,8.531432677062245,713.845383166514
0.044,8.537255212515163,714.0795664753934
0.045,8.543081644509845,714.313816924715
0.046,8.548911975547462,714.5481345235373
0.047,8.554746208130636,714.7825192809097
0.048,8.56058434476345,715.0169712058698
0.049,8.566967932749309,715.2740980195025
0.05,8.572814247424606,715.5086908277493
0.051,8.578664473903215,715.7433508315605
0.052,8.584518614695188,715.9780780399301
0.053,8.590376672312054,716.2128724618415
0.054,8.596238649266787,716.4477341062664
0.055,8.602104548073845,716.6826629821663
0.056,8.608518542590806,716.9403194749136
0.057,8.614392656764357,717.175389370257
0.058,8.620270700575997,717.4105265248156
0.059,8.62615267654617,717.645730947507
0.06,8.63203858719678,717.8810026472371
0.061,8.637928435051208,718.1163416329014
0.062,8.643822222634293,718.3517479133836
0.063,8.6502667628494,718.6099346456068
0.064,8.656168803277744,718.8454820805656
0.065,8.662074791252719,719.0810968378436
0.066,8.667984729305179,719.3167789262808
0.067,8.673898619967456,719.5525283547048
0.068,8.679816465773328,719.7883451319327
0.069,8.6857382692581,720.0242292667718
0.07,8.692213494919507,720.2829467950643
0.071,8.698143588883536,720.518972218277
0.072,8.704077648376728,720.7550650263601
0.073,8.710015675940367,720.9912252280737
0.074,8.715957674117265,721.2274528321688
0.075,8.72190364545166,721.4637478473833
0.076,8.72785359248928,721.7001102824444
0.077,8.734359643928045,721.9593591595834
0.078,8.740317919234643,722.1958630157671
0.079,8.746280178127137,722.4324343188126
0.08,8.752246423157333,722.6690730774025
0.081,8.758216656878481,722.905779300206
0.082,8.764190881845325,723.1425529958819
0.083,8.770169100614083,723.3793941730779
0.084,8.776706118746079,723.6391749479851
0.085,8.78269270372974,723.8761576778924
0.086,8.788683290430503,724.1132079160891
0.087,8.794677881410662,724.3503256711758
0.088,8.800676479233989,724.5875109517422
0.089,8.806679086465747,724.8247637663668
0.09,8.81268570567269,725.0620841236163
0.091,8.819253832000491,725.3223973413142
0.092,8.825268855524948,725.5598593816906
0.093,8.831287898972375,725.7973889912122
0.094,8.837310964915607,726.0349861783981
0.095,8.843338055928967,726.2726509517573
0.096,8.849369174588274,726.5103833197868
0.097,8.855404323470825,726.7481832909712
0.098,8.862003700085538,727.0090294925383
0.099,8.868047291545393,727.24697127608
0.1,8.874094921208988,727.4849806890447
0.101,8.880146591659733,727.7230577398708
0.102,8.88620230548253,727.9612024369843
0.103,8.89226206526378,728.1994147887997
0.104,8.898325873591379,728.4376948037202
0.105,8.904956643174508,728.6990745262469
0.106,8.911028932496848,728.9374964815562
0.107,8.917105278378829,729.1759861259836
0.108,8.923185683414468,729.4145434678844
0.109,8.929270150199287,729.6531685156016
0.11,8.935358681330293,729.8918612774672
0.111,8.941451279405989,730.1306217618001
0.112,8.947547947026417,730.3694499769094
0.113,8.954214710669165,730.6314390435643
0.114,8.96031990331136,730.8704093436361
0.115,8.966429173549118,731.1094474002031
0.116,8.97254252398858,731.3485532215236
0.117,8.978659957237442,731.5877268158471
0.118,8.984781475904857,731.8269681914085
0.119,8.9909070826015,732.0662773564317
0.12,8.997605546685888,732.3288010802269
0.121,9.003739717160883,732.5682524556347
0.122,9.009877983748979,732.8077716459628
0.123,9.016020349066993,733.0473586593863
0.124,9.02216681573327,733.2870135040674
0.125,9.028317386367668,733.5267361881572
0.126,9.034472063591542,733.7665267197938
0.127,9.041202372665616,734.0295856250035
0.128,9.047365652583636,734.2695184912095
0.129,9.053533047208107,734.5095192301579
0.13,9.059704559166576,734.7495878499377
0.131,9.065880191088098,734.9897243586262
0.132,9.072059945603245,735.2299287642884
0.133,9.078243825344098,735.4702010749769
0.134,9.085006124554063,735.7337956817024
0.135,9.09119864606449,735.9742104498921
0.136,9.097395300950812,736.214693148037
0.137,9.103596091851314,736.4552437841402
0.138,9.109801021405797,736.6958623661918
0.139,9.116010092255584,736.9365489021702
0.14,9.122223307043502,737.1773034000412
0.141,9.128440668413912,737.418125867758
0.142,9.135239646040274,737.6823322837474
0.143,9.141465693960445,737.9232973476536
0.144,9.147695896651316,738.1643304060277
0.145,9.153930256763468,738.4054314667734
0.146,9.160168776948991,738.6466005377805
0.147,9.166411459861514,738.8878376269269
0.148,9.172658308156166,739.129142742078
0.149,9.179489588694317,739.393885958756
0.15,9.185745162957609,739.6353337903042
0.151,9.192004910824682,739.876849672208
0.152,9.19826883495692,740.1184336122816
0.153,9.204536938017222,740.3600856183266
0.154,9.210809222670056,740.6018056981334
0.155,9.217085691581374,740.8435938594781
0.156,9.223949422068262,741.1088743835362
0.157,9.230234656528234,741.350805380191
0.158,9.236524083501857,741.5928044824592
0.159,9.24281770566133,741.8348716980655
0.16,9.249115525680457,742.0770070347232
0.161,9.255417546234497,742.3192105001312
0.162,9.26172377000028,742.5614821019773
0.163,9.268034199656155,742.8038218479348
0.164,9.274935135497755,743.0697159955173
0.165,9.281254376060028,743.3121987108362
0.166,9.287577830805933,743.5547495940255
0.167,9.293905502420097,743.7973686527073
0.168,9.300237393588695,744.0400558944908
0.169,9.306573506999435,744.282811326972
0.17,9.312913845341555,744.5256349577346
0.171,9.31984754797544,744.7920674826693
0.172,9.326196737150656,745.0350341988922
0.173,9.33255015958453,745.2780691368744
0.174,9.338907817972599,745.5211723041458
0.175,9.34526971501195,745.7643437082249
0.176,9.351635853401207,746.0075833566162
0.177,9.358006235840532,746.2508912568111
0.178,9.36438086503164,746.4942674162891
0.179,9.371352136113243,746.7613147729544
0.18,9.377735661891965,747.0048341486956
0.181,9.384123442788354,747.2484218068732
0.182,9.39051548151044,747.4920777549125
0.183,9.396911780767791,747.7358020002257
0.184,9.403312343271528,747.9795945502117
0.185,9.409717171734298,748.2234554122556
0.186,9.416721529246871,748.4910421957724
0.187,9.423135294572837,748.7350463873025
0.188,9.42955333425769,748.979118913758
0.189,9.435975651020437,749.2232597824709
0.19,9.442402247581613,749.4674690007595
0.191,9.448833126663361,749.7117465759303
0.192,9.455268290989313,749.9560925152749
0.193,9.461707743284682,750.2005068260723
0.194,9.468750035537107,750.4687096258835
0.195,9.475198470849449,750.7132673936499
0.196,9.481651202569882,750.9578935554036
0.197,9.488108233430005,751.2025881183714
0.198,9.494569566162923,751.4473510897623
0.199,9.501035203503315,751.6921824767741
0.2,9.507505148187414,751.9370822865917
0.201,9.514580849322744,752.205825541808
0.202,9.52105981765042,752.4508689188747
0.203,9.52754310179465,752.6959807409886
0.204,9.534030704498052,752.9411610152794
0.205,9.540522628504794,753.1864097488617
0.206,9.547018876560603,753.4317269488379
0.207,9.553519451412773,753.677112622296
0.208,9.560024355810151,753.9225667763109
0.209,9.56713836119736,754.1919272082038
0.21,9.573652335793891,754.4375250535593
0.211,9.58017064844758,754.6831914013753
0.212,9.586693301913677,754.9289262586713
0.213,9.593220298948996,755.1747296324522
0.214,9.599751642311922,755.4206015297098
0.215,9.606287334762397,755.6665419574218
0.216,9.612827379061933,755.912550922552
0.217,9.619979886945679,756.1825291393878
0.218,9.626529048215064,756.428681918112
0.219,9.63308256988468,756.6749032558163
0.22,9.639640454722459,756.9211931594086
0.221,9.6462027054979,757.1675516357832
0.222,9.652769324982058,757.413978691819
0.223,9.65934031594761,757.6604743343836
0.224,9.6665267325123,757.9309945415181
0.225,9.673106881616677,758.1776341033236
0.226,9.679691410788072,758.4243422729154
0.227,9.686280322805553,758.6711190571026
0.228,9.692873620449808,758.917964462682
0.229,9.699471306503039,759.1648784964334
0.23,9.706073383749057,759.4118611651245
0.231,9.712679854973242,759.6589124755086
0.232,9.719905148522477,759.9300515898324
0.233,9.726520825061744,760.1772469382029
0.234,9.733140904204303,760.4245109491761
0.235,9.73976538874197,760.671843629447
0.236,9.74639428146816,760.9192449856965
0.237,9.75302758517787,761.1667150245925
0.238,9.759665302667669,761.4142537527875
0.239,9.766307436735712,761.6618611769206
0.24,9.773571808178826,761.9336197860258
0.241,9.780223194955415,762.1813713649937
0.242,9.786879006974944,762.4291916604551
0.243,9.793539247042055,762.6770806789908
0.244,9.800203917962962,762.9250384271674
0.245,9.806873022545469,763.1730649115368
0.246,9.813546563598964,763.4211601386365
0.247,9.820224543934419,763.6693241149896
0.248,9.827528195113203,763.9417027991177
0.249,9.834215475768488,764.190011045232
0.25,9.840907204410147,764.4383880607982
0.251,9.847603383855652,764.6868338522806
0.252,9.85430401692406,764.9353484261293
0.253,9.861009106436027,765.1839317887799
0.254,9.867718655213782,765.432583946653
0.255,9.874432666081182,765.6813049061554
0.256,9.881775799772965,765.9543042381081
0.257,9.888499158790045,766.203169580355
0.258,9.895226988641008,766.4521037440678
0.259,9.901959292156185,766.7011067355925
0.26,9.908696072167562,766.9501785612631
0.261,9.915437331508658,767.1993192273961
0.262,9.922183073014615,767.4485287402952
0.263,9.92956097808184,767.7220725446376
0.264,9.936316109837579,767.971426537718
0.265,9.94307573253742,768.2208493970791
0.266,9.949839849023082,768.4703411289664
0.267,9.956608462137813,768.7199017396065
0.268,9.963381574726492,768.9695312352134
0.269,9.970159189635586,769.2192296219849
0.27,9.976941309713162,769.4689969061047
0.271,9.984359080327744,769.7431624128416
0.272,9.991150638896933,769.9930742864211
0.273,9.99794671145395,770.2430550764959
0.274,10.004747300853431,770.4931047891896
0.275,10.011552409951596,770.7432234306098
0.276,10.018362041606292,770.9934110068494
0.277,10.025176198676952,771.2436675239866
0.278,10.03199488402463,771.4939929880843
0.279,10.039452725672195,771.7687807481325
0.28,10.046280897973874,772.0192509089612
0.281,10.053113607412115,772.2697900355246
0.282,10.059950856854535,772.5203981338236
0.283,10.06679264917037,772.7710752098452
0.284,10.073638987230458,773.0218212695604
0.285,10.080489873907258,773.2726363189257
0.286,10.087345312074806,773.5235203638814
0.287,10.094843431188542,773.7989309203775
0.288,10.101708404993758,774.0499597673074
0.289,10.108577939189612,774.3010576282252
0.29,10.115452036656762,774.5522245090089
0.291,10.122330700277468,774.8034604155217
0.292,10.129213932935649,775.0547653536141
0.293,10.13610173751679,775.3061393291175
0.294,10.142994116908008,775.55758234785
0.295,10.150532720871682,775.8336162360597
0.296,10.15743468480612,776.0852041599566
0.297,10.16434123249097,776.3368611450979
0.298,10.171252366819948,776.5885871972378
0.299,10.17816809068841,776.8403823221158
0.3,10.185088406993332,777.0922465254561
0.301,10.192013318633299,777.3441798129669
0.302,10.198942828508534,777.5961821903417
0.303,10.205876939520861,777.8482536632573
0.304,10.213461279358075,778.124988481364
0.305,10.220405030127736,778.3772049728799
0.306,10.227353391020412,778.6294905775185
0.307,10.234306364944569,778.8818453008928
0.308,10.241263954810305,779.1342691486018
0.309,10.248226163529345,779.3867621262278
0.31,10.25519299401504,779.6393242393377
0.311,10.262164449182356,779.8919554934826
0.312,10.269789717428718,780.1693147533313
0.313,10.276770861732555,780.4220911248356
0.314,10.283756639744642,780.6749366545656
0.315,10.290747054386612,780.9278513480082
0.316,10.297742108581732,781.1808352106344
0.317,10.304741805254874,781.4338882478993
0.318,10.311746147332602,781.6870104652438
0.319,10.31875513774304,781.9402018680906
0.32,10.326421544771495,782.2181860797822
0.321,10.333440273921724,782.4715226966234
0.322,10.340463660472135,782.7249285157627
0.323,10.347491707357545,782.9784035425583
0.324,10.354524417514453,783.2319477823542
0.325,10.361561793880947,783.485561240476
0.326,10.368603839396759,783.7392439222347
0.327,10.375650557003265,783.9929958329245
0.328,10.383358314149971,784.271605498311
0.329,10.390414820324315,784.5255027174845
0.33,10.397476007697774,784.7794691819863
0.331,10.40454187921842,785.0335048970447
0.332,10.411612437835966,785.2876098678729
0.333,10.418687686501766,785.5417840996673
0.334,10.425767628168806,785.7960275976085
0.335,10.432852265791722,786.0503403668606
0.336,10.440601585359223,786.3295759794572
0.337,10.447696061603484,786.5840341495123
0.338,10.454795242953116,786.8385616068713
0.339,10.461899132369476,787.0931583566322
0.34,10.46900773281556,787.3478244038764
0.341,10.47612104725601,787.6025597536693
0.342,10.48323907865711,787.8573644110596
0.343,10.490361829986787,788.1122383810797
0.344,10.497489304214596,788.3671816687448
0.345,10.505285576221334,788.6471210967322
0.346,10.512422945578486,788.9022098862772
0.347,10.5195650470296,789.1573680090027
0.348,10.52671188355099,789.4125954698571
0.349,10.533863458120605,789.6678922737726
0.35,10.5410197737181,789.9232584256661
0.351,10.548180833324722,790.1786939304359
0.352,10.555346639923394,790.4341987929649
0.353,10.563184928407088,790.7147651879483
0.354,10.570360680669577,790.9704156399872
0.355,10.577541189161279,791.2261354649082
0.356,10.584726456871854,791.4819246675247
0.357,10.591916486792634,791.7377832526346
0.358,10.599111281916608,791.9937112250193
0.359,10.60631084523842,792.2497085894436
0.36,10.613515179754367,792.505775350655
0.361,10.620724288462409,792.7619115133847
0.362,10.62861004199629,793.0431828466141
0.363,10.635829153418292,793.2994646946038
0.364,10.643053048316125,793.5558159587641
0.365,10.650281729694523,793.8122366437577
0.366,10.657515200559889,794.0687267542299
0.367,10.66475346392028,794.3252862948092
0.368,10.671996522785413,794.5819152701065
0.369,10.679244380166672,794.8386136847172
0.37,10.687172608633963,795.1205129657856
0.371,10.69443051974776,795.3773571484929
0.372,10.701693238703015,795.634270784744
0.373,10.708960768517915,795.8912538790632
0.374,10.716233112212304,796.1483064359593
0.375,10.723510272807676,796.4054284599222
0.376,10.730792253327241,796.6626199554267
0.377,10.738079056795826,796.9198809269291
0.378,10.745370686239946,797.1772113788688
0.379,10.753346897328111,797.4598166767513
0.38,10.760648638100438,797.7172929870871
0.381,10.767955214220489,797.97483879161
0.382,10.775266628721637,798.2324540946906
0.383,10.782582884638874,798.4901389006803
0.384,10.789903985008864,798.7478932139142
0.385,10.79722993286996,799.0057170387083
0.386,10.804560731262175,799.2636103793637
0.387,10.812579880169348,799.5468445660628
0.388,10.819920841395424,799.8048838430457
0.389,10.827266662566682,800.0629926492082
0.39,10.834617346729987,800.3211709887789
0.391,10.84197289693387,800.5794188659698
0.392,10.849333316228542,800.8377362849742
0.393,10.856698607665894,801.096123249969
0.394,10.86406877429948,801.354579765113
0.395,10.871443819184535,801.6131058345474
0.396,10.87951147327516,801.89704707129
0.397,10.886896739138663,802.1557191617767
0.398,10.89428689271487,802.4144608193817
0.399,10.90168193706588,802.6732720481754
0.4,10.909081875255477,802.9321528522086
0.401,10.916486710349133,803.1911032355156
0.402,10.923896445413964,803.4501232021121
0.403,10.931311083518834,803.7092127559982
0.404,10.93873062773423,803.9683719011543
0.405,10.94684706552262,804.2530207158408
0.406,10.954276889152831,804.512325963773
0.407,10.96171162840209,804.7717008153062
0.408,10.969151286347834,805.0311452743499
0.409,10.976595866069124,805.2906593447932
0.41,10.984045370646724,805.550243030509
0.411,10.991499803163086,805.8098963353516
0.412,10.998959166702338,806.0696192631568
0.413,11.00642346435031,806.3294118177439
0.414,11.014588965761847,806.6147687251234
0.415,11.022063601553716,806.8747074611753
0.416,11.029543181010313,807.134715835838
0.417,11.037027707224366,807.3947938528569
0.418,11.044517183290303,807.6549415159586
0.419,11.05201161230423,807.9151588288515
0.42,11.05951099736396,808.1754457952267
0.421,11.067015341568988,808.4358024187565
0.422,11.074524648020502,808.6962287030952
0.423,11.082739494396458,808.9822942046112
0.424,11.090259198014596,809.2428667460306
0.425,11.09778387348283,809.5035089595798
0.426,11.105313523909285,809.7642208488387
0.427,11.112848152403771,810.0250024173687
0.428,11.120387762077783,810.2858536687123
0.429,11.127932356044568,810.5467746063962
0.43,11.135481937419007,810.8077652339255
0.431,11.1430365093177,811.0688255547888
0.432,11.151300983419882,811.3556001384139
0.433,11.158866011802468,811.6168067888648
0.434,11.166436040360702,811.8780831434567
0.435,11.174011072218114,812.139429205602
0.436,11.181591110499962,812.4008449786952
0.437,11.189176158333193,812.6623304661113
0.438,11.19676621884647,812.9238856712083
0.439,11.204361295170145,813.1855105973239
0.44,11.21196139043628,813.4472052477788
0.441,11.220275776451638,813.734689387851
0.442,11.227886387814461,813.9965304372566
0.443,11.235502027819022,814.2584412212877
0.444,11.24312269960435,814.5204217431882
0.445,11.250748406311184,814.7824720061832
0.446,11.25837915108197,815.0445920134787
0.447,11.266014937060863,815.3067817682623
0.448,11.273655767393715,815.5690412737026
0.449,11.281301645228071,815.831370532949
0.45,11.289666228773473,816.1195646900113
0.451,11.29732268261371,816.38204041439
0.452,11.304984193702799,816.6445859023355
0.453,11.3126507651953,816.9072011569211
0.454,11.320322400247465,817.1698861811994
0.455,11.327999102017314,817.4326409782069
0.456,11.335680873664518,817.6954655509587
0.457,11.343367718350487,817.9583599024519
0.458,11.35105963923834,818.2213240356645
0.459,11.35947470736507,818.5102286562936
0.46,11.367177264465226,818.7733393175979
0.461,11.374884907562809,819.0365197698504
0.462,11.382597639827923,819.2997700159494
0.463,11.390315464432417,819.5630900587763
0.464,11.398038384549864,819.8264799011918
0.465,11.405766403355539,820.089939546039
0.466,11.413499524026443,820.3534689961401
0.467,11.421237749741291,820.6170682542995
0.468,11.429703590939718,820.9066837709427
0.469,11.437452513371573,821.1704296169004
0.47,11.445206550691228,821.4342452796052
0.471,11.452965706084434,821.6981307617824
0.472,11.46072998273867,821.9620860661378
0.473,11.468499383843128,822.2261111953567
0.474,11.476273912588724,822.4902061521067
0.475,11.484053572168076,822.7543709390336
0.476,11.491838365775589,823.018605558767
0.477,11.500355269979822,823.3089323895749
0.478,11.508150821108117,823.5733136535173
0.479,11.515951516156886,823.8377647584102
0.48,11.523757358327543,824.1022857068012
0.481,11.531568350823216,824.3668765012179
0.482,11.539384496848818,824.6315371441706
0.483,11.547205799610918,824.8962676381477
0.484,11.55503226231784,825.1610679856182
0.485,11.562863888179644,825.4259381890323
0.486,11.5707006804081,825.6908782508198
0.487,11.579274604326791,825.9819950367049
0.488,11.587122221917713,826.2470818013796
0.489,11.594975015821603,826.5122384319607
0.49,11.60283298925732,826.7774649307967
0.491,11.61069614544545,827.0427613002171
0.492,11.618564487608326,827.3081275425318
0.493,11.626438018969989,827.5735636600294
0.494,11.634316742756234,827.8390696549804
0.495,11.642200662194577,828.1046455296345
0.496,11.650826265628313,828.396474464133
0.497,11.658721071866907,828.6621970910093
0.498,11.666621083752691,828.9279896045628
0.499,11.67452630452028,829.1938520069613
0.5,11.682436737406032,829.4597843003529
0.501,11.69035238564804,829.7257864868654
0.502,11.69827325248611,829.9918585686053
0.503,11.706199341161856,830.2580005476616
0.504,11.714130654918558,830.5242124261016
0.505,11.722067197001259,830.7904942059719
0.506,11.730750508031772,831.0831139839918
0.507,11.738698005462266,831.3495425668126
0.508,11.746650741268176,831.6160410574116
0.509,11.754608718701652,831.8826094577533
0.51,11.762571941016587,832.1492477697813
0.511,11.770540411468641,832.4159559954194
0.512,11.778514133315204,832.6827341365706
0.513,11.786493109815405,832.9495821951178
0.514,11.79447734423013,833.2165001729239
0.515,11.802466839821992,833.4834880718305
0.516,11.811208223213823,833.7768991309829
0.517,11.819208743074135,834.0440338793098
0.518,11.827214534215459,834.31123855445
0.519,11.83522559990756,834.5785131581625
0.52,11.843241943421951,834.8458576921842
0.521,11.851263568031897,835.1132721582325
0.522,11.85929047701238,835.3807565580026
0.523,11.867322673640203,835.648310893172
0.524,11.875360161193845,835.915935165395
0.525,11.88415417745362,836.2100595186787
0.526,11.892202751688542,836.4778306785252
0.527,11.900256627002376,836.7456717805593
0.528,11.908315806680775,837.0135828263512
0.529,11.916380294011196,837.2815638174511
0.53,11.924450092282802,837.5496147553872
0.531,11.932525204786511,837.8177356416675
0.532,11.940605634815006,838.0859264777779
0.533,11.94869138566272,838.3541872651854
0.534,11.956782460625835,838.6225180053345
0.535,11.96563524817528,838.9174344141849
0.536,11.973737479452728,839.1859120801814
0.537,11.981845045053465,839.4544597034037
0.538,11.989957948280866,839.7230772852115
0.539,11.998076192440063,839.9917648269426
0.54,12.00619978083794,840.2605223299142
0.541,12.014328716783146,840.5293497954218
0.542,12.022463003586084,840.7982472247406
0.543,12.030602644558893,841.0672146191232
0.544,12.03874764301554,841.3362519798037
0.545,12.04765957245839,841.6319608207302
0.546,12.05581579723888,841.901145141065
0.547,12.063977389766036,842.1703994315227
0.548,12.072144353360981,842.4397236932493
0.549,12.080316691346594,842.7091179273683
0.55,12.088494407047563,842.9785821349836
0.551,12.09667750379029,843.2481163171765
0.552,12.104865984902952,843.517720475006
0.553,12.113059853715498,843.7873946095118
0.554,12.121259113559631,844.0571387217101
0.555,12.130230557525353,844.3536403496256
0.556,12.138441114080472,844.6235314508127
0.557,12.146657071985155,844.8934925328534
0.558,12.154878434578338,845.1635235966762
0.559,12.16310520520073,845.4336246431885
0.56,12.171337387194804,845.7037956732764
0.561,12.179574983904804,845.9740366878044
0.562,12.187817998676735,846.2443476876147
0.563,12.196066434858384,846.5147286735287
0.564,12.204320295799274,846.7851796463449
0.565,12.213351628949825,847.0824743942944
0.566,12.221616857367614,847.3530723809073
0.567,12.229887520917929,847.6237403569082
0.568,12.238163622957563,847.8944783230075
0.569,12.246445166845096,848.1652862798938
0.57,12.254732155940848,848.4361642282322
0.571,12.26302459360698,848.7071121686689
0.572,12.271322483207369,848.9781301018259
0.573,12.279625828107674,849.2492180283034
0.574,12.287934631675338,849.5203759486806
0.575,12.296248897279584,849.7916038635136
0.576,12.305346487672752,850.0897706125846
0.577,12.313672198969003,850.3611455631575
0.578,12.322003382736039,850.632590509921
0.579,12.330340042350356,850.9041054533417
0.58,12.338682181190217,851.1756903938636
0.581,12.347029802635673,851.4473453319084
0.582,12.355382910068547,851.7190702678764
0.583,12.363741506872442,851.9908652021447
0.584,12.372105596432744,852.2627301350689
0.585,12.380475182136593,852.5346650669809
0.586,12.389633454796785,852.8336255626326
0.587,12.398014557757264,853.1057075454058
0.588,12.406401167351154,853.3778595282107
0.589,12.414793286972905,853.6500815112887
0.59,12.423190920018765,853.9223734948592
0.591,12.431594069886733,854.1947354791181
0.592,12.440002739976668,854.4671674642412
0.593,12.448416933690131,854.7396694503792
0.594,12.456836654430507,855.0122414376618
0.595,12.465261905602961,855.2848834261956
0.596,12.473692690614438,855.5575954160647
0.597,12.482918097111023,855.8574285452943
0.598,12.491360478474729,856.1302875971822
0.599,12.499808404228611,856.403216650678
0.6,12.50826187778694,856.6762157057732
0.601,12.516720902565758,856.9492847624367
0.602,12.52518548198292,857.2224238206143
0.603,12.533655619458047,857.4956328802291
0.604,12.542131318412569,857.7689119411821
0.605,12.550612582269697,858.0422610033503
0.606,12.559099414454408,858.3156800665885
0.607,12.568386305343276,858.6163074687482
0.608,12.576884806248414,858.8898735991878
0.609,12.585388886088259,859.1635097302602
0.61,12.593898548295156,859.4372158617267
0.611,12.602413796303237,859.7109919933253
0.612,12.610934633548402,859.9848381247702
0.613,12.619461063468414,860.2587542557549
0.614,12.627993089502773,860.5327403859477
0.615,12.636530715092785,860.8067965149945
0.616,12.645073943681558,861.080922642518
0.617,12.653622778713988,861.3551187681172
0.618,12.662977690003325,861.6566193247097
0.619,12.67153827373757,861.930962517604
0.62,12.680104474584247,862.2053757073473
0.621,12.688676295995629,862.479858893444
0.622,12.697253741425758,862.7544120753746
0.623,12.705836814330501,863.029035252598
0.624,12.714425518167518,863.3037284245484
0.625,12.723019856396256,863.5784915906366
0.626,12.731619832477977,863.8533247502505
0.627,12.74022544987571,864.128227902754
0.628,12.748836712054372,864.4032010474895
0.629,12.758260111946624,864.7055749856422
0.63,12.766883203274372,864.980695191861
0.631,12.775511950113646,865.2558853882826
0.632,12.784146355936667,865.531145574151
0.633,12.792786424217525,865.8064757486893
0.634,12.801432158432043,866.0818759110934
0.635,12.810083562057867,866.3573460605373
0.636,12.818740638574461,866.6328861961713
0.637,12.827403391463086,866.9084963171216
0.638,12.836071824206808,867.1841764224905
0.639,12.8447459402905,867.459926511357
0.64,12.854238299747845,867.7631740263633
0.641,12.862924325895152,868.0390711649159
0.642,12.8716160461751,868.3150382841275
0.643,12.880313464079967,868.5910753829788
0.644,12.889016583103826,868.8671824604271
0.645,12.897725406742582,869.1433595154062
0.646,12.90643993849393,869.4196065468248
0.647,12.915160181857388,869.6959235535693
0.648,12.923886140334258,869.9723105344992
0.649,12.932617817427724,870.2487674884549
0.65,12.941355216642698,870.5252944142474
0.651,12.950917009396143,870.8294156691417
0.652,12.9596664000579,871.1060896267599
0.653,12.968421523696032,871.3828335525538
0.654,12.977182383822951,871.6596474452393
0.655,12.98594898395282,871.9365313035065
0.656,12.994721327601631,872.2134851260209
0.657,13.003499418287197,872.4905089114243
0.658,13.012283259529148,872.767602658334
0.659,13.02107285484892,873.044766365343
0.66,13.02986820776978,873.3220000310201
0.661,13.038669321816798,873.599303653909
0.662,13.047476200516869,873.8766772325307
0.663,13.057114228366736,874.181751081324
0.664,13.065933187768191,874.4592716652661
0.665,13.074757922745604,874.7368622003713
0.666,13.0835884368333,875.0145226850593
0.667,13.092424733567443,875.2922531177251
0.668,13.101266816486001,875.5700534967388
0.669,13.110114689128752,875.8479238204459
0.67,13.118968355037355,876.1258640871689
0.671,13.12782781775523,876.403874295204
0.672,13.136693080827634,876.6819544428224
0.673,13.145564147801645,876.9601045282716
0.674,13.155272608091936,877.2660523514155
0.675,13.16415583813437,877.5443494113896
0.676,13.173044883063888,877.8227164037801
0.677,13.181939746435035,878.1011533267337
0.678,13.19084043180417,878.3796601783698
0.679,13.1997469427295,878.6582369567847
0.68,13.208659282771043,878.9368836600494
0.681,13.217577455490636,879.2156002862089
0.682,13.226501464451955,879.4943868332845
0.683,13.235431313220497,879.7732432992719
0.684,13.244367005363557,880.0521696821406
0.685,13.253308544450334,880.3311659798381
0.686,13.26309433566571,880.6380665713859
0.687,13.27204812815119,880.917209802809
0.688,13.281007778634251,881.1964229427133
0.689,13.28997329069152,881.4757059889412
0.69,13.298944667901441,881.7550589393094
0.691,13.307921913844364,882.0344817916116
0.692,13.31690503210238,882.3139745436135
0.693,13.325894026259457,882.5935371930572
0.694,13.33488889990137,882.8731697376581
0.695,13.343889656615755,883.1528721751073
0.696,13.35289629999205,883.4326445030698
0.697,13.361908833621543,883.7124867191859
0.698,13.37177253259948,884.0203401058968
0.699,13.380797410521435,884.3003292073281
0.7,13.38982818981907,884.5803881896197
0.701,13.398864874091172,884.8605170503068
0.702,13.407907466938374,885.1407157868998
0.703,13.416955971963128,885.4209843968822
0.704,13.426010392769733,885.7013228777129
0.705,13.435070732964293,885.9817312268235
0.706,13.444136996154832,886.2622094416238
0.707,13.453209185951117,886.5427575194936
0.708,13.462287305964798,886.8233754577886
0.709,13.471371359809353,887.104063253839
0.71,13.481313547031865,887.4128694176574
0.711,13.490410036627733,887.6937040428935
0.712,13.49951247124577,887.9746085176324
0.713,13.50862085450696,888.255582839098
0.714,13.517735190034148,888.536627004488
0.715,13.526855481452023,888.8177410109747
0.716,13.535981732387107,889.0989248557034
0.717,13.545113946467762,889.3801785357942
0.718,13.554252127324201,889.6615020483414
0.719,13.56339627858847,889.9428953904124
0.72,13.572546403894462,890.2243585590487
0.721,13.581702506877882,890.5058915512654
0.722,13.591723766482916,890.8156504286693
0.723,13.600892397243303,891.097330186118
0.724,13.610067016941398,891.3790797579215
0.725,13.619247629220489,891.6608991409887
0.726,13.628434237725676,891.9427883322
0.727,13.637626846103974,892.224747328413
0.728,13.646825458004175,892.506776126455
0.729,13.656030077076947,892.7888747231299
0.73,13.665240706974785,893.0710431152131
0.731,13.67445735135205,893.3532812994546
0.732,13.683680013864937,893.6355892725777
0.733,13.692908698171498,893.9179670312792
0.734,13.702143407931624,894.2004145722291
0.735,13.712250941012703,894.5112047622977
0.736,13.721498278825381,894.7937989902518
0.737,13.73075165342678,895.0764629901599
0.738,13.740011068484357,895.3591967585832
0.739,13.749276527667433,895.6420002920561
0.74,13.758548034647163,895.9248735870858
0.741,13.767825593096564,896.2078166401543
0.742,13.777109206690477,896.4908294477144
0.743,13.786398879105663,896.7739120061951
0.744,13.795694614020661,897.0570643119958
0.745,13.804996415115898,897.3402863614907
0.746,13.814304286073632,897.6235781510258
0.747,13.824492119899096,897.9353207733919
0.748,13.833812712120297,898.2187591693202
0.749,13.843139385608511,898.5022672939926
0.75,13.8524721440536,898.7858451436455
0.751,13.861810991147278,899.0694927144881
0.752,13.871155930583114,899.3532100027024
0.753,13.880506966056531,899.6369970044437
0.754,13.889864101264804,899.9208537158394
0.755,13.899227339907062,900.2047801329894
0.756,13.908596685684302,900.4887762519672
0.757,13.917972142299337,900.772842068818
0.758,13.927353713456924,901.0569775795624
0.759,13.936741402863595,901.3411827801898
0.76,13.947016848719645,901.6539562982773
0.761,13.956417360952237,901.9383080087763
0.762,13.965824002913717,902.222729396763
0.763,13.975236778318228,902.507220458116
0.764,13.984655690881862,902.791781188689
0.765,13.994080744322462,903.0764115843049
0.766,14.003511942359786,903.3611116407609
0.767,14.01294928871543,903.6458813538252
0.768,14.022392787112866,903.9307207192397
0.769,14.031842441277423,904.2156297327186
0.77,14.041298254936285,904.5006083899477
0.771,14.050760231818508,904.7856566865856
0.772,14.060228375655003,905.0707746182632
0.773,14.069702690178515,905.3559621805819
0.774,14.080073224524671,905.6698449311675
0.775,14.089560471943647,905.95517888857
0.776,14.099053901610743,906.2405824630164
0.777,14.108553517266357,906.5260556499961
0.778,14.118059322652735,906.8115984449697
0.779,14.127571321514058,907.0972108433714
0.78,14.137089517596301,907.3828928406064
0.781,14.146613914647325,907.6686444320509
0.782,14.156144516416859,907.9544656130548
0.783,14.165681326656495,908.240356378939
0.784,14.175224349119699,908.5263167249963
0.785,14.184773587561793,908.8123466464916
0.786,14.19432904573997,909.0984461386613
0.787,14.204788656466143,909.4133590802418
0.788,14.214357150498909,909.6996048506268
0.789,14.22393187590453,909.9859201769544
0.79,14.233512836447847,910.2723050543452
0.791,14.243100035895571,910.558759477892
0.792,14.252693478016282,910.8452834426591
0.793,14.262293166580427,911.1318769436822
0.794,14.271899105360308,911.4185399759682
0.795,14.281511298130157,911.7052725344982
0.796,14.291129748666002,911.9920746142209
0.797,14.300754460745782,912.2789462100587
0.798,14.310385438149297,912.5658873169056
0.799,14.320022684658221,912.8528979296258
0.8,14.329666204056096,913.1399780430557
0.801,14.34022249037679,913.4559993115073
0.802,14.3498791572062,913.7432255661264
0.803,14.359542108643021,914.0305213054834
0.804,14.36921134847846,914.3178865242977
0.805,14.378886880505608,914.6053212172588
0.806,14.38856870851942,914.8928253790282
0.807,14.39825683631673,915.1803990042378
0.808,14.407951267696241,915.4680420874911
0.809,14.417652006458518,915.7557546233625
0.81,14.427359056406061,916.0435366063986
0.811,14.437072421343192,916.3313880311156
0.812,14.446792105076103,916.6193088920011
0.813,14.45651811141289,916.9072991835138
0.814,14.466250444163512,917.1953589000834
0.815,14.47690423746835,917.5124879092967
0.816,14.486649830012004,917.8006936182305
0.817,14.496401760769842,918.0889687349904
0.818,14.50616003355951,918.3773132538862
0.819,14.515924652200543,918.6657271691995
0.82,14.52569562051433,918.9542104751814
0.821,14.535472942324166,919.242763166055
0.822,14.545256621455204,919.5313852360131
0.823,14.555046661734494,919.8200766792195
0.824,14.56484306699095,920.1088374898084
0.825,14.574645841055345,920.3976676618838
0.826,14.584454987760413,920.6865671895232
0.827,14.594270510940698,920.9755360667717
0.828,14.604092414432625,921.2645742876457
0.829,14.61392070207453,921.5536818461316
0.83,14.62467984939309,921.8719964006251
0.831,14.634521518034058,922.1612497787683
0.832,14.644369582713269,922.4505724759226
0.833,14.654224047276761,922.7399644859541
0.834,14.664084915572445,923.0294258026981
0.835,14.67395219145011,923.3189564199613
0.836,14.683825878761441,923.6085563315194
0.837,14.693705981359987,923.8982255311188
0.838,14.703592503101204,924.1879640124768
0.839,14.71348544784242,924.47777176928
0.84,14.723384819442819,924.767648795184
0.841,14.73329062176355,925.0575950838177
0.842,14.743202858667573,925.3476106287771
0.843,14.753121534019755,925.6376954236288
0.844,14.763046651686851,925.9278494619101
0.845,14.773912120661931,926.2473486935928
0.846,14.783850741438604,926.5376483648452
0.847,14.79379581650664,926.8280172595331
0.848,14.803747349740489,927.1184553710693
0.849,14.81370534501651,927.4089626928375
0.85,14.823669806212967,927.6995392181899
0.851,14.833640737209992,927.9901849404505
0.852,14.843618141889612,928.2808998529107
0.853,14.853602024135752,928.5716839488327
0.854,14.863592387834212,928.8625372214489
0.855,14.873589236872686,929.1534596639596
0.856,14.883592575140726,929.4444512695352
0.857,14.893602406529865,929.7355120313177
0.858,14.903618734933431,930.0266419424157
0.859,14.913641564246685,930.3178409959095
0.86,14.924614329848481,930.6385239334563
0.861,14.934650785288646,930.9298684190219
0.862,14.944693753703286,931.2212820255722
0.863,14.95474323899538,931.512764746061
0.864,14.9647992450698,931.8043165734107
0.865,14.974861775833327,932.0959375005137
0.866,14.98493083519463,932.3876275202323
0.867,14.995006427064263,932.6793866253961
0.868,15.00508855535468,932.9712148088064
0.869,15.01517722398023,933.2631120632313
0.87,15.025272436857154,933.5550783814097
0.871,15.035374197903542,933.8471137560472
0.872,15.045482511039486,934.1392181798221
0.873,15.055597380186866,934.4313916453788
0.874,15.065718809269502,934.7236341453311
0.875,15.075846802213103,935.0159456722624
0.876,15.086935055226963,935.3378895004673
0.877,15.097076806466102,935.6303462293107
0.878,15.10722513372541,935.9228719621862
0.879,15.117380040938336,936.2154666915484
0.88,15.127541532040238,936.5081304098211
0.881,15.137709610968361,936.8008631093977
0.882,15.147884281661876,937.09366478264
0.883,15.158065548061813,937.3865354218772
0.884,15.168253414111128,937.679475019409
0.885,15.178447883754663,937.9724835675025
0.886,15.188648960939146,938.2655610583935
0.887,15.198856649613193,938.5587074842852
0.888,15.209070953727396,938.8519228373527
0.889,15.21929187723415,939.1452071097368
0.89,15.22951942408779,939.4385602935462
0.891,15.23975359824454,939.7319823808596
0.892,15.249994403662521,940.025473363723
0.893,15.26120655282906,940.3487548946222
0.894,15.271461258057833,940.6423908165941
0.895,15.28172260680754,940.936095609507
0.896,15.291990603044091,941.2298692652777
0.897,15.302265250735283,941.5237117757902
0.898,15.31254655385082,941.8176231328978
0.899,15.322834516362299,942.1116033284211
0.9,15.333129142243221,942.4056523541487
0.901,15.34343043546899,942.699770201838
0.902,15.353738400016884,942.9939568632126
0.903,15.364053039866159,943.2882123299675
0.904,15.374374358997887,943.5825365937623
0.905,15.384702361395089,943.8769296462251
0.906,15.39503705104266,944.1713914789532
0.907,15.405378431927408,944.4659220835099
0.908,15.415726508038057,944.7605214514282
0.909,15.426081283365214,945.0551895742074
0.91,15.43741860934309,945.3798071205599
0.911,15.447787427167603,945.6746199004256
0.912,15.458162956569064,945.9695014088505
0.913,15.468545201545878,946.2644516372027
0.914,15.478934166098357,946.5594705768166
0.915,15.489329854228705,946.8545582189951
0.916,15.499732269941045,947.149714555008
0.917,15.5101414172414,947.4449395760929
0.918,15.520557300137666,947.7402332734538
0.919,15.530979922639732,948.0355956382649
0.92,15.541409288759295,948.3310266616643
0.921,15.551845402510006,948.6265263347595
0.922,15.562288267907405,948.9220946486249
0.923,15.572737888968943,949.2177315943021
0.924,15.58319426971398,949.5134371628
0.925,15.593657414163765,949.8092113450936
0.926,15.60412732634147,950.1050541321265
0.927,15.614604010272178,950.400965514809
0.928,15.626075242999548,950.7269951701628
0.929,15.636566121740197,951.0230508900538
0.93,15.647063784701118,951.3191751774676
0.931,15.657568235915202,951.6153680231793
0.932,15.668079479417228,951.9116294179313
0.933,15.678597519243871,952.2079593524317
0.934,15.68912235943378,952.5043578173581
0.935,15.699654004027442,952.8008248033522
0.936,15.710192457067272,953.0973603010239
0.937,15.7207377225976,953.3939643009493
0.938,15.731289804664662,953.6906367936717
0.939,15.741848707316592,953.987377769701
0.94,15.752414434603443,954.284187219513
0.941,15.762986990577184,954.5810651335515
0.942,15.773566379291676,954.8780115022261
0.943,15.784152604802669,955.1750263159107
0.944,15.7947456711679,955.4721095649512
0.945,15.805345582446956,955.7692612396556
0.946,15.815952342701323,956.0664813302992
0.947,15.827566465900613,956.3939986305935
0.948,15.838187583124615,956.6913626966068
0.949,15.848815561904159,956.988795148467
0.95,15.859450406308628,957.2862959763132
0.951,15.870092120409234,957.5838651702489
0.952,15.880740708279127,957.8815027203453
0.953,15.891396173993366,958.1792086166377
0.954,15.902058521628923,958.4769828491295
0.955,15.912727755264685,958.7748254077899
0.956,15.923403878981436,959.0727362825528
0.957,15.934086896861883,959.3707154633198
0.958,15.944776812990648,959.6687629399581
0.959,15.955473631454225,959.9668787022991
0.96,15.966177356341115,960.2650627401441
0.961,15.97688799174164,960.563315043257
0.962,15.987605541748065,960.8616356013682
0.963,15.998330010454568,961.1600244041742
0.964,16.009061401957243,961.4584814413374
0.965,16.019799720354087,961.7570067024863
0.966,16.031558374616793,962.086008888398
0.967,16.04231121361376,962.3846777376635
0.968,16.05307099219832,962.6834147788178
0.969,16.06383771447631,962.9822200013483
0.97,16.07461138455547,963.2810933947076
0.971,16.08539200654548,963.580034948315
0.972,16.096179584557902,963.8790446515543
0.973,16.106974122706234,964.1781224937754
0.974,16.117775625105853,964.4772684642928
0.975,16.128584095874142,964.7764825523881
0.976,16.139399539130295,965.0757647473068
0.977,16.150221958995466,965.3751150382597
0.978,16.161051359592715,965.6745334144233
0.979,16.171887745047027,965.9740198649396
0.98,16.18273111948529,966.2735743789156
0.981,16.19358148703631,966.5731969454232
0.982,16.20443885183082,966.8728875534996
0.983,16.215303218001438,967.1726461921473
0.984,16.226174589682703,967.472472850333
0.985,16.23705297101114,967.7723675169907
0.986,16.247938366125098,968.0723301810169
0.987,16.259858615607904,968.4029692030091
0.988,16.270758713804618,968.7030749971188
0.989,16.281665838605495,969.0032487542379
0.99,16.292579994156743,969.3034904631197
0.991,16.30350118460656,969.6038001124846
0.992,16.314429414104982,969.9041776910145
0.993,16.325364686803994,970.2046231873583
0.994,16.336307006857474,970.5051365901284
0.995,16.347256378421257,970.8057178879027
0.996,16.358212805653057,971.106367069223
0.997,16.36917629271252,971.407084122596
0.998,16.38014684376121,971.7078690364931
0.999,16.39112446296261,972.0087217993502
1.0,16.402109154482087,972.3096423995668
1.001,16.413100922487,972.6106308255091
1.002,16.42409977114658,972.9116870655058
1.003,16.435105704631955,973.21281110785
1.004,16.446118727116193,973.5140029407999
1.005,16.45713884277428,973.8152625525777
1.006,16.468166055783126,974.1165899313696
1.007,16.47920037032154,974.4179850653259
1.008,16.49024179057026,974.719447942562
1.009,16.50233348474867,975.0517970727991
1.01,16.51338980114493,975.353402565639
1.011,16.52445323620147,975.6550757649766
1.012,16.535523794106904,975.9568166587791
1.013,16.546601479051727,976.2586252349777
1.014,16.557686295228372,976.5605014814685
1.015,16.568778246831172,976.8624453861112
1.016,16.579877338056438,977.1644569367303
1.017,16.59098357310233,977.4665361211129
1.018,16.602096956168953,977.7686829270094
1.019,16.61321749145833,978.0708973421359
1.02,16.624345183174405,978.3731793541709
1.021,16.635480035523035,978.6755289507561
1.022,16.646622052712004,978.9779461194988
1.023,16.657771238951007,979.2804308479676
1.024,16.668927598451663,979.582983123697
1.025,16.680091135427492,979.8856029341822
1.026,16.691261854093998,980.1882902668858
1.027,16.702439758668532,980.4910451092303
1.028,16.713624853370384,980.7938674486037
1.029,16.72481714242078,981.0967572723565
1.03,16.73601663004285,981.3997145678029
1.031,16.74722332046165,981.7027393222199
1.032,16.758437217904152,982.0058315228488
1.033,16.770718456088197,982.3400400384754
1.034,16.781947462475042,982.6432742521754
1.035,16.79318368897897,982.9465758725971
1.036,16.80442713983481,983.2499448868311
1.037,16.815677819279323,983.5533812819302
1.038,16.826935731551178,983.8568850449108
1.039,16.838200880890984,984.160456162752
1.04,16.849473271541253,984.4640946223963
1.041,16.860752907746395,984.7678004107476
1.042,16.872039793752826,985.0715735146754
1.043,16.88333393380879,985.3754139210101
1.044,16.89463533216448,985.6793216165453
1.045,16.90594399307203,985.9832965880379
1.046,16.91725992078547,986.2873388222067
1.047,16.928583119560756,986.5914483057337
1.048,16.93991359365578,986.8956250252639
1.049,16.951251347330327,987.1998689674044
1.05,16.96259638484613,987.5041801187257
1.051,16.97394871046679,987.8085584657586
1.052,16.985308328457936,988.1130039950004
1.053,16.996675243087015,988.417516692907
1.054,17.00804945862343,988.7220965458987
1.055,17.019430979338512,989.0267435403586
1.056,17.03081980950549,989.3314576626302
1.057,17.042215953399552,989.6362388990219
1.058,17.053619415297756,989.9410872358019
1.059,17.066109001526957,990.2773024143206
1.06,17.07752780548743,990.5822920615853
1.061,17.088953940700844,990.8873487667415
1.062,17.100387411452154,991.1924725159032
1.063,17.111828222028223,991.4976632951472
1.064,17.12327637671785,991.8029210905123
1.065,17.13473187981175,992.1082458879998
1.066,17.14619473560252,992.4136376735712
1.067,17.157664948384788,992.719096433153
1.068,17.16914252245499,993.0246221526312
1.069,17.180627462111527,993.3302148178539
1.07,17.192119771654713,993.6358744146318
1.071,17.203619455386793,993.941600928737
1.072,17.21512651761191,994.2473943459029
1.073,17.226640962636164,994.5532546518257
1.074,17.23816279476754,994.8591818321624
1.075,17.24969201831598,995.1651758725322
1.076,17.261228637593298,995.4712367585156
1.077,17.272772656913247,995.7773644756534
1.078,17.284324080591563,996.0835590094514
1.079,17.295882912945824,996.3898203453738
1.08,17.307449158295544,996.6961484688467
1.081,17.319022820962193,997.0025433652587
1.082,17.33060390526911,997.3090050199587
1.083,17.342192415541593,997.6155334182573
1.084,17.353788356106854,997.9221285454266
1.085,17.365391731294014,998.2287903866999
1.086,17.377002545434124,998.5355189272711
1.087,17.38862080286012,998.842314152295
1.088,17.40134650136413,999.1807572140491
1.089,17.412980364031835,999.4876929031558
1.09,17.424621683407562,999.794695230769
1.091,17.43627046383216,1000.1017641818853
1.092,17.44792670964834,1000.4088997414608
1.093,17.459590425200844,1000.7161018944154
1.094,17.471261614836237,1001.0233706256269
1.095,17.482940282903034,1001.3307059199356
1.096,17.49462643375167,1001.6381077621419
1.097,17.506320071734493,1001.9455761370068
1.098,17.51802120120579,1002.2531110292535
1.099,17.529729826521756,1002.5607124235643
1.1,17.541445952040498,1002.868380304583
1.101,17.553169582122056,1003.1761146569132
1.102,17.56490072112836,1003.4839154651193
1.103,17.576639373423347,1003.7917827137284
1.104,17.58838554337278,1004.0997163872252
1.105,17.600139235344358,1004.4077164700557
1.106,17.611900453707744,1004.7157829466269
1.107,17.623669202834467,1005.023915801305
1.108,17.63544548709801,1005.3321150184186
1.109,17.647229310873776,1005.6403805822549
1.11,17.65902067853907,1005.948712477062
1.111,17.670819594473116,1006.2571106870478
1.112,17.682626063057043,1006.5655751963797
1.113,17.694440088673982,1006.8741059891885
1.114,17.70626167570889,1007.1827030495612
1.115,17.71809082854868,1007.4913663615469
1.116,17.72992755158218,1007.8000959091543
1.117,17.741771849200127,1008.1088916763522
1.118,17.753623725795194,1008.4177536470689
1.119,17.765483185761966,1008.7266818051928
1.12,17.77735023349694,1009.0356761345731
1.121,17.79034945694738,1009.3766400480658
1.122,17.80223241346623,1009.6857737955045
1.123,17.81412297137246,1009.9949736642035
1.124,17.826021135070434,1010.3042396378466
1.125,17.83792690896643,1010.6135717000772
1.126,17.849840297468642,1010.922969834498
1.127,17.86176130498719,1011.2324340246719
1.128,17.87368993593407,1011.54196425412
1.129,17.885626194723294,1011.8515605063252
1.13,17.89757008577071,1012.1612227647286
1.131,17.90952161349409,1012.47095101273
1.132,17.921480782313132,1012.7807452336892
1.133,17.933447596649472,1013.0906054109258
1.134,17.945422060926646,1013.4005315277178
1.135,17.9574041795701,1013.7105235673033
1.136,17.969393957007217,1014.0205815128794
1.137,17.981391397667274,1014.3307053476022
1.138,17.99339650598146,1014.6408950545858
1.139,18.005409286382946,1014.9511506169072
1.14,18.01742974330675,1015.2614720175976
1.141,18.029457881189824,1015.5718592396508
1.142,18.041493704471037,1015.8823122660175
1.143,18.053537217591185,1016.1928310796083
1.144,18.06558842499297,1016.5034156632927
1.145,18.077647331121003,1016.8140659998982
1.146,18.089713940421838,1017.1247820722124
1.147,18.10178825734391,1017.4355638629808
1.148,18.113870286337562,1017.7464113549071
1.149,18.125960031855147,1018.0573245306563
1.15,18.138057498350825,1018.3683033728489
1.151,18.150162690280712,1018.6793478640662
1.152,18.16227561210284,1018.9904579868462
1.153,18.174396268277142,1019.3016337236874
1.154,18.18652466326549,1019.6128750570451
1.155,18.19866080153165,1019.924181969334
1.156,18.210804687541316,1020.2355544429272
1.157,18.222956325762084,1020.546992460156
1.158,18.235115720663437,1020.858496003309
1.159,18.247282876716877,1021.1700650546359
1.16,18.259457798395708,1021.4816995963417
1.161,18.271640490175205,1021.7933996105911
1.162,18.283830956532515,1022.1051650795067
1.163,18.2971858242052,1022.449312602976
1.164,18.30939259185959,1022.7612160268499
1.165,18.321607147961213,1023.0731848500485
1.166,18.333829496995083,1023.385219054523
1.167,18.346059643448132,1023.6973186221819
1.168,18.358297591809176,1024.0094835348918
1.169,18.370543346568972,1024.3217137744775
1.17,18.382796912220176,1024.6340093227216
1.171,18.395058293257353,1024.9463701613636
1.172,18.40732749417699,1025.2587962721013
1.173,18.419604519477442,1025.5712876365901
1.174,18.431889373659093,1025.8838442364452
1.175,18.44418206122411,1026.196466053236
1.176,18.456482586676632,1026.5091530684915
1.177,18.468790954522692,1026.8219052636973
1.178,18.48110716927024,1027.134722620297
1.179,18.493431235429135,1027.447605119692
1.18,18.505763157511158,1027.7605527432409
1.181,18.518102940029973,1028.0735654722587
1.182,18.530450587501182,1028.3866432880193
1.183,18.54280610444229,1028.6997861717525
1.184,18.55516949537266,1029.0129941046462
1.185,18.567540764813682,1029.3262670678453
1.186,18.57991991728856,1029.639605042453
1.187,18.592306957322425,1029.9530080095271
1.188,18.604701889442318,1030.2664759500844
1.189,18.617104718177206,1030.580008845098
1.19,18.629515448057944,1030.8936066754986
1.191,18.641934083617315,1031.2072694221738
1.192,18.65436062938999,1031.5209970659675
1.193,18.666795089912558,1031.8347895876805
1.194,18.679237469723482,1032.1486469680701
1.195,18.69168777336323,1032.4625691878532
1.196,18.704146005374078,1032.7765562276998
1.197,18.716612170300248,1033.0906080682387
1.198,18.729086272687855,1033.4047246900539
1.199,18.741568317084933,1033.7189060736882
1.2,18.75405830804142,1034.0331521996388
1.201,18.766556250109147,1034.3474630483606
1.202,18.779062147841874,1034.661838600265
1.203,18.791576005795253,1034.9762788357189
1.204,18.804097828526796,1035.2907837350465
1.205,18.816627620596048,1035.6053532785288
1.206,18.82916538656434,1035.9199874464025
1.207,18.84171113099494,1036.2346862188608
1.208,18.854264858453032,1036.5494495760527
1.209,18.86682657350569,1036.8642774980835
1.21,18.8793962807219,1037.1791699650148
1.211,18.89197398467255,1037.494126956865
1.212,18.90455968993044,1037.809148453608
1.213,18.91715340107026,1038.1242344351726
1.214,18.929755122668563,1038.4393848814448
1.215,18.942364859303932,1038.7545997722684
1.216,18.954982615556723,1039.0698790874396
1.217,18.96760839600925,1039.3852228067121
1.218,18.980242205245716,1039.7006309097965
1.219,18.992884047852222,1040.0161033763568
1.22,19.005533928416785,1040.3316401860145
1.221,19.01819185152931,1040.6472413183462
1.222,19.03085782178161,1040.9629067528845
1.223,19.043531843767393,1041.278636469117
1.224,19.056213922082236,1041.5944304464872
1.225,19.068904061323718,1041.9102886643948
1.226,19.08280855001573,1042.2591538508639
1.227,19.095515592315813,1042.5751475396826
1.228,19.108230709785254,1042.8912054052614
1.229,19.120953907029314,1043.207327426816
1.23,19.133685188655246,1043.5235135835198
1.231,19.146424559272113,1043.8397638544993
1.232,19.15917202349089,1044.1560782188376
1.233,19.17192758592446,1044.4724566555712
1.234,19.1846912511876,1044.7888991436935
1.235,19.197463023896994,1045.1054056621522
1.236,19.210242908671205,1045.4219761898498
1.237,19.223030910130703,1045.738610705645
1.238,19.235827032897852,1046.0553091883496
1.239,19.248631281596882,1046.3720716167315
1.24,19.261443660854013,1046.6888979695148
1.241,19.27426417529726,1047.0057882253761
1.242,19.28709282955657,1047.3227423629478
1.243,19.29992962826379,1047.639760360817
1.244,19.31277457605264,1047.9568421975257
1.245,19.32562767755875,1048.2739878515697
1.246,19.338488937419655,1048.5911973014015
1.247,19.351358360274755,1048.9084705254256
1.248,19.364235950765355,1049.2258075020025
1.249,19.377121713534674,1049.5432082094474
1.25,19.390015653227746,1049.860672626028
1.251,19.402917774491634,1050.1782007299698
1.252,19.41582808197518,1050.4957924994503
1.253,19.42874658032914,1050.8134479126013
1.254,19.441673274206185,1051.1311669475097
1.255,19.45460816826084,1051.4489495822168
1.256,19.46755126714957,1051.7667957947165
1.257,19.480502575530686,1052.0847055629588
1.258,19.493462098064402,1052.4026788648466
1.259,19.506429839412835,1052.7207156782379
1.26,19.519405804239938,1053.0388159809431
1.261,19.532389997211673,1053.356979750729
1.262,19.545382422995758,1053.6752069653141
1.263,19.558383086261856,1053.9934976023712
1.264,19.571391991681516,1054.311851639528
1.265,19.584409143928184,1054.6302690543653
1.266,19.597434547677167,1054.9487498244177
1.267,19.61046820760566,1055.2672939271738
1.268,19.62351012839277,1055.5859013400745
1.269,19.636560314719464,1055.904572040517
1.27,19.649618771268578,1056.2233060058484
1.271,19.662685502724916,1056.5421032133736
1.272,19.675760513775078,1056.8609636403478
1.273,19.688843809107592,1057.1798872639818
1.274,19.701935393412843,1057.498874061438
1.275,19.71503527138311,1057.8179240098327
1.276,19.728143447712565,1058.1370370862362
1.277,19.741259927097254,1058.4562132676715
1.278,19.754384714235105,1058.7754525311154
1.279,19.767517813825922,1059.0947548534964
1.28,19.78065923057137,1059.4141202116973
1.281,19.793808969175085,1059.7335485825554
1.282,19.806967034342488,1060.053039942859
1.283,19.820133430780913,1060.3725942693495
1.284,19.83330816319957,1060.6922115387224
1.285,19.846491236309554,1061.011891727625
1.286,19.859682654823832,1061.3316348126584
1.287,19.872882423457252,1061.6514407703762
1.288,19.886090546926543,1061.9713095772843
1.289,19.899307029950304,1062.2912412098415
1.29,19.912531877249,1062.6112356444605
1.291,19.925765093545028,1062.9312928575055
1.292,19.93900668356262,1063.251412825294
1.293,19.95225665202786,1063.5715955240946
1.294,19.965515003668756,1063.8918409301314
1.295,19.978781743215155,1064.2121490195775
1.296,19.992056875398788,1064.5325197685604
1.297,20.005340404953273,1064.8529531531597
1.298,20.0186323366141,1065.1734491494076
1.299,20.03193267511861,1065.494007733288
1.3,20.045241425206008,1065.8146288807366
1.301,20.05855859161747,1066.1353125676442
1.302,20.071884179095925,1066.4560587698509
1.303,20.085218192386215,1066.7768674631488
1.304,20.098560636235067,1067.097738623284
1.305,20.111911515391064,1067.4186722259535
1.306,20.125270834604667,1067.7396682468068
1.307,20.138638598628198,1068.0607266614443
1.308,20.15201481221585,1068.381847445419
1.309,20.165399480123686,1068.7030305742364
1.31,20.178792607109617,1069.024276023352
1.311,20.19219419793351,1069.3455837681772
1.312,20.20560425735699,1069.6669537840698
1.313,20.219022790143594,1069.9883860463422
1.314,20.23244980105873,1070.3098805302589
1.315,20.245885294869666,1070.6314372110342
1.316,20.259329276345532,1070.953056063835
1.317,20.27278175025733,1071.2747370637799
1.318,20.28624272137791,1071.5964801859384
1.319,20.299712194482012,1071.9182854053317
1.32,20.313190174346182,1072.2401526969309
1.321,20.326676665748955,1072.5620820356623
1.322,20.34017167347059,1072.8840733964
1.323,20.353675202293296,1073.206126753971
1.324,20.36718725700109,1073.5282420831518
1.325,20.380707842379874,1073.8504193586718
1.326,20.39423696321742,1074.1726585552105
1.327,20.407774624303336,1074.494959647399
1.328,20.421320830429117,1074.8173226098193
1.329,20.434875586388088,1075.1397474170044
1.33,20.44843889697543,1075.462234043437
1.331,20.46201076698825,1075.7847824635535
1.332,20.47559120122544,1076.107392651739
1.333,20.489180204487766,1076.4300645823294
1.334,20.50277778157786,1076.7527982296117
1.335,20.516383937300194,1077.075593567824
1.336,20.52999867646112,1077.3984505711549
1.337,20.543622003868823,1077.7213692137427
1.338,20.557253924333352,1078.0443494696779
1.339,20.570894442666614,1078.367391313
1.34,20.584543563682328,1078.6904947176993
1.341,20.59820129219617,1079.013659657718
1.342,20.61186763302556,1079.336886106947
1.343,20.625542590989824,1079.6601740392282
1.344,20.63922617091011,1079.983523428353
1.345,20.65291837760944,1080.3069342480642
1.346,20.666619215912675,1080.630406472054
1.347,20.680328690646526,1080.9539400739657
1.348,20.69404680663956,1081.2775350273917
1.349,20.70777356872218,1081.6011913058744
1.35,20.72150898172662,1081.9249088829063
1.351,20.735253050487046,1082.2486877319318
1.352,20.749005779839386,1082.5725278263428
1.353,20.76145469526573,1082.8622019659742
1.354,20.77522393238781,1083.1861575569772
1.355,20.789001844156925,1083.5101743155042
1.356,20.802788435416296,1083.834252214754
1.357,20.816583711010892,1084.158391227872
1.358,20.830387675787563,1084.482591327955
1.359,20.84420033459498,1084.8068524880484
1.36,20.858021692283682,1085.1311746811477
1.361,20.871851753706025,1085.4555578801976
1.362,20.88569052371623,1085.7800020580921
1.363,20.899538007170346,1086.1045071876763
1.364,20.91339420892625,1086.429073241742
1.365,20.92725913384364,1086.753700193031
1.366,20.941132786784166,1087.0783880142376
1.367,20.955015172611184,1087.4031366780011
1.368,20.96890629618994,1087.727946156912
1.369,20.98280616238751,1088.0528164235097
1.37,20.996714776072817,1088.377747450283
1.371,21.01063214211661,1088.702739209669
1.372,21.024558265391473,1089.0277916740547
1.373,21.03849315077183,1089.352904815776
1.374,21.05243680313394,1089.6780786071167
1.375,21.06638922735583,1090.003313020309
1.376,21.08035042831752,1090.3286080275373
1.377,21.09432041090071,1090.6539636009318
1.378,21.108299179988986,1090.9793797125717
1.379,21.12228674046776,1091.3048563344862
1.38,21.136283097224283,1091.6303934386517
1.381,21.15028825514762,1091.955990996994
1.382,21.164302219128665,1092.2816489813872
1.383,21.17832499406016,1092.6073673636538
1.384,21.192356584836663,1092.933146115566
1.385,21.206396996354517,1093.258985208841
1.386,21.220446233512,1093.58488461515
1.387,21.234504301209114,1093.9108443061077
1.388,21.248571204347726,1094.2368642532786
1.389,21.26264694783151,1094.5629444281758
1.39,21.27673153656597,1094.8890848022595
1.391,21.29082497545844,1095.2152853469388
1.392,21.304927269418084,1095.5415460335726
1.393,21.319038423355863,1095.8678668334642
1.394,21.333158442184576,1096.194247717868
1.395,21.3472873308188,1096.5206886579836
1.396,21.36142509417504,1096.847189624962
1.397,21.37557173717152,1097.1737505898996
1.398,21.3897272647283,1097.5003715238408
1.399,21.40389168176728,1097.827052397778
1.4,21.418064993212155,1098.1537931826517
1.401,21.43224720398846,1098.48059384935
1.402,21.446438319023517,1098.8074543687082
1.403,21.46063834324648,1099.1343747115093
1.404,21.47484728158832,1099.4613548484836
1.405,21.48906513898181,1099.7883947503096
1.406,21.503291920361516,1100.1154943876124
1.407,21.5175276306639,1100.4426537309664
1.408,21.53177227482714,1100.7698727508905
1.409,21.54602585779127,1101.0971514178527
1.41,21.560288384498122,1101.4244897022677
