TimeMS,Acc,qDot
0.0,8.281048306174878,-0.3654077677251887
0.001,8.28460806414044,703.8253185436463
0.002,8.287645385238818,703.9453603913336
0.003,8.29068378050287,704.0654176960833
0.004,8.293723250283083,704.1854904569806
0.005,8.296763794930044,704.3055786731089
0.006,8.300330104582471,704.4479478728204
0.007,8.303372985667808,704.5680699409064
0.008,8.306416942732863,704.6882074613469
0.009,8.309461976128569,704.8083604332154
0.01,8.312508086206007,704.9285288555855
0.011,8.31555527331633,705.0487127275275
0.012,8.319129415962005,705.1912010694301
0.013,8.322178944234242,705.3114187821308
0.014,8.325229550654141,705.4316519414864
0.015,8.328281235573211,705.5519005465576
0.016,8.331333999343105,705.6721645964047
0.017,8.334914718305017,705.8147528200433
0.018,8.337969827201118,705.93505070115
0.019,8.341026016064323,706.055364024081
0.02,8.344083285246644,706.1756927878866
0.021,8.347141635100204,706.296036991617
0.022,8.350201065977176,706.4163966343175
0.023,8.353789647362557,706.5591039717433
0.024,8.356851428103532,706.6794974341933
0.025,8.359914290986028,706.7999063326208
0.026,8.36297823636263,706.9203306660642
0.027,8.366043264586024,707.0407704335593
0.028,8.369109376008984,707.161225634141
0.029,8.37270583586838,707.3040520691688
0.03,8.37577430190089,707.424541077819
0.031,8.378843852252853,707.5450455165202
0.032,8.38191448727744,707.665565384298
0.033,8.3849862073279,707.7861006801753
0.034,8.388589281683833,707.9290269591226
0.035,8.391663360326593,708.0495960531641
0.036,8.394738525116658,708.1701805722367
0.037,8.397814776407674,708.290780515355
0.038,8.400892114553342,708.4113958815292
0.039,8.40397053990749,708.5320266697703
0.04,8.40758152230914,708.6750720153273
0.041,8.410662311015406,708.7957365897371
0.042,8.413744188053405,708.9164165831039
0.043,8.416827153777355,709.037111994429
0.044,8.41991120854152,709.1578228227098
0.045,8.422996352700311,709.2785490669439
0.046,8.426615259275263,709.4217134615093
0.047,8.429702771553753,709.5424734797441
0.048,8.43279137435193,709.6632489107812
0.049,8.43588106802457,709.7840397536075
0.05,8.438971852926551,709.9048460072097
0.051,8.442597412361666,710.0481102045125
0.052,8.445690569384585,710.168950221802
0.053,8.448784818763407,710.2898056466796
0.054,8.4518801608534,710.4106764781225
0.055,8.454976596009912,710.5315627151052
0.056,8.458074124588379,710.6524643566007
0.057,8.46170763791024,710.7958475693029
0.058,8.464807543391517,710.9167829619994
0.059,8.467908543423167,711.0377337559808
0.06,8.471010638360992,711.1586999502092
0.061,8.47411382856092,711.2796815436468
0.062,8.477218114378964,711.4006785352527
0.063,8.480859597792326,711.5441807443199
0.064,8.483966265302831,711.6652114744666
0.065,8.487074029561674,711.7862575995115
0.066,8.490182890925269,711.9073191184051
0.067,8.49329284975007,712.0283960300943
0.068,8.496941024570992,712.1719979973197
0.069,8.500053369107995,712.2931086368227
0.07,8.503166812237973,712.4142346658158
0.071,8.506281354317801,712.535376083239
0.072,8.509396995704462,712.6565328880295
0.073,8.512513736754984,712.7777050791204
0.074,8.516169911522846,712.9214260064563
0.075,8.51928904308953,713.0426319123792
0.076,8.522409275453661,713.1638532012555
0.077,8.52553060897269,713.2850898720111
0.078,8.528653044004152,713.4063419235692
0.079,8.531776580905694,713.5276093548517
0.08,8.535440771902573,713.6714492218167
0.081,8.538566704132025,713.7927503547738
0.082,8.541693739366924,713.914066864064
0.083,8.544821877965294,714.0353987485998
0.084,8.547951120285255,714.1567460072916
0.085,8.551622041421167,714.3006855844
0.086,8.554753683107311,714.4220665336209
0.087,8.557886429651962,714.5434628535719
0.088,8.561020281413631,714.6648745431543
0.089,8.56415523875088,714.7863016012659
0.09,8.567291302022404,714.9077440268036
0.091,8.570970269385064,715.0518025046132
0.092,8.574108736848851,715.1732786071974
0.093,8.577248311385658,715.2947700737398
0.094,8.580388993354568,715.4162769031274
0.095,8.583530783114716,715.537799094245
0.096,8.586673681025374,715.6593366459763
0.097,8.590360710974336,715.8035140025437
0.098,8.593506017911128,715.9250852176614
0.099,8.596652434138992,716.0466717898809
0.1,8.599799960017572,716.1682737180761
0.101,8.602948595906621,716.2898910011198
0.102,8.606098342165936,716.41152363788
0.103,8.609793451088088,716.5558198507431
0.104,8.612945611215213,716.6774861370516
0.105,8.616098882855004,716.7991677735223
0.106,8.61925326636768,716.9208647590159
0.107,8.622408762113547,717.0425770923903
0.108,8.626110653846995,717.1869729449147
0.109,8.62926856752404,717.3087189161196
0.11,8.632427594578207,717.4304802316151
0.111,8.635587735370166,717.5522568902489
0.112,8.638748990260718,717.6740488908686
0.113,8.641911359610747,717.7958562323184
0.114,8.645621360507906,717.9403708985488
0.115,8.648786152645133,718.0622118636609
0.116,8.651952060387579,718.1840681659692
0.117,8.655119084096523,718.3059398043091
0.118,8.6582872241333,718.4278267775127
0.119,8.661456480859378,718.5497290844114
0.12,8.665174607384795,718.6943625404015
0.121,8.668346291761914,718.8162984566147
0.122,8.671519093975899,718.9382497028452
0.123,8.67469301438861,719.0602162779151
0.124,8.677868053361953,719.1821981806422
0.125,8.681044211257973,719.3041954098444
0.126,8.684770479903573,719.4489476311217
0.127,8.687949070322281,719.5709784551098
0.128,8.691128780813054,719.6930246018518
0.129,8.69430961173831,719.8150860701551
0.13,8.697491563460575,719.937162858826
0.131,8.701224667927798,720.0820146428387
0.132,8.704409056261252,720.204125013997
0.133,8.707594566542609,720.3262507017644
0.134,8.710781199134773,720.4483917049366
0.135,8.713968954400737,720.5705480223077
0.136,8.717157832703592,720.692719652669
0.137,8.720899109674805,720.8376901556653
0.138,8.724090429474868,720.9598953536517
0.139,8.727282873464578,721.0821158608276
0.14,8.730476442007378,721.2043516759736
0.141,8.733671135466848,721.3266027978708
0.142,8.736866954206638,721.4488692252962
0.143,8.740616420251591,721.5939584212972
0.144,8.743814685382437,721.716258401302
0.145,8.747014076948188,721.8385736829895
0.146,8.7502145953129,721.9609042651285
0.147,8.753416240840684,722.0832501464838
0.148,8.75661901389578,722.2056113258195
0.149,8.760376685611686,722.350819188314
0.15,8.763581909959509,722.4732139050004
0.151,8.76678826299105,722.5956239157773
0.152,8.76999574507095,722.7180492194001
0.153,8.773204356563882,722.8404898146186
0.154,8.776414097834675,722.9629457001838
0.155,8.780179991846223,723.108272202123
0.156,8.783392189319237,723.230761609626
0.157,8.786605517728338,723.3532663035411
0.158,8.789819977438725,723.4757862826085
0.159,8.793035568815698,723.5983215455672
0.16,8.796808365954051,723.7437475039368
0.161,8.800026417653486,723.8663162757921
0.162,8.803245602179244,723.9889003275653
0.163,8.806465919897013,724.1114996579857
0.164,8.80968737117256,724.2341142657791
0.165,8.812909956371751,724.3567441496696
0.166,8.816691006433793,724.5022886964227
0.167,8.819916056879334,724.6249520734572
0.168,8.823142242410132,724.7476307225729
0.169,8.826369563392396,724.870324642483
0.17,8.829598020192496,724.9930338319
0.171,8.832827613176857,725.1157582895335
0.172,8.836616932865311,725.2614213960893
0.173,8.839848996027756,725.3841793309285
0.174,8.843082196537907,725.5069525299239
0.175,8.84631653476256,725.629740991774
0.176,8.849552011068646,725.7525447151777
0.177,8.852788625823175,725.8753636988303
0.178,8.856586231868304,726.0211453360639
0.179,8.859825321740487,726.1439977807969
0.18,8.863065551226368,726.2668654816729
0.181,8.866306920693365,726.3897484373782
0.182,8.86954943050894,726.512646646595
0.183,8.872793081040696,726.6355601080053
0.184,8.87659899020031,726.7814602462465
0.185,8.879845120797127,726.9044071524252
0.186,8.883092393277204,727.027369306646
0.187,8.886340808008523,727.1503467075808
0.188,8.889590365359169,727.2733393538992
0.189,8.892841065697267,727.3963472442667
0.19,8.896655294756737,727.5423658532976
0.191,8.899908480115148,727.6654071719337
0.192,8.903162809629945,727.7884637304234
0.193,8.906418283669678,727.9115355274239
0.194,8.909674902602998,728.0346225615899
0.195,8.913496116725232,728.180740484669
0.196,8.91675522483747,728.3038609331481
0.197,8.920015479013756,728.4269966145595
0.198,8.923276879623092,728.5501475275462
0.199,8.926539427034623,728.6733136707522
0.2,8.929803121617562,728.7964950428178
0.201,8.933632686563294,728.942731379769
0.202,8.936898875294832,729.0659461493011
0.203,8.94016621237008,729.1891761434132
0.204,8.943434698158615,729.312421360735
0.205,8.946704333030157,729.4356817998957
0.206,8.949975117354498,729.5589574595215
0.207,8.953813049987392,729.7053121785611
0.208,8.957086333437852,729.8286212186159
0.209,8.960360767515233,729.95194547481
0.21,8.96363635258973,730.0752849457598
0.211,8.966913089031586,730.1986396300784
0.212,8.970190977211194,730.3220095263779
0.213,8.97403729442253,730.4684825951668
0.214,8.977317686713635,730.5918858546681
0.215,8.980599231918436,730.7153043217787
0.216,8.983881930407701,730.8387379951001
0.217,8.987165782552287,730.9621868732324
0.218,8.990450788723116,731.0856509547715
0.219,8.994305507431804,731.2322423404128
0.22,8.99759302270736,731.3557397677354
0.221,9.000881693186965,731.4792523940475
0.222,9.004171519241941,731.6027802179366
0.223,9.00746250124374,731.7263232379876
0.224,9.01075463956385,731.849881452782
0.225,9.014617776716417,731.9965911218185
0.226,9.017912429142362,732.1201826647871
0.227,9.021208239066237,732.2437893980347
0.228,9.024505206859967,732.3674113201351
0.229,9.027803332895555,732.4910484296581
0.23,9.03110261754512,732.6147007251724
0.231,9.034974190115799,732.7615286435868
0.232,9.038275993880132,732.8852142494718
0.233,9.041578957439857,733.0089150368359
0.234,9.044883081167482,733.1326310042381
0.235,9.048188365435582,733.2563621502337
0.236,9.051494810616836,733.3801084733758
0.237,9.055374835607516,733.5270546065868
0.238,9.05868380492035,733.6508342221041
0.239,9.061993936329635,733.7746290102115
0.24,9.06530523020841,733.8984389694508
0.241,9.068617686929837,734.0222640983641
0.242,9.071931306867176,734.1461043954889
0.243,9.075819801307409,734.2931687083483
0.244,9.079135950401,734.4170422796582
0.245,9.08245326389562,734.5409310145764
0.246,9.085771742164924,734.6648349116314
0.247,9.089091385582618,734.7887539693489
0.248,9.092412194522542,734.9126881862527
0.249,9.096309175469582,735.0598706430449
0.25,9.099632518598293,735.1838381157493
0.251,9.10295702843619,735.3078207429892
0.252,9.106282705357504,735.4318185232788
0.253,9.109609549736513,735.5558314551279
0.254,9.112937561947636,735.6798595370461
0.255,9.116843046486457,735.8271601014857
0.256,9.120173597926772,735.9512214206254
0.257,9.123505318387998,736.0752978851365
0.258,9.126838208244921,736.1993894935177
0.259,9.13017226787244,736.3234962442654
0.26,9.13350749764551,736.4476181358727
0.261,9.137421502888797,736.5950367711023
0.262,9.140759276939333,736.7191918811559
0.263,9.144098222326061,736.8433621273247
0.264,9.147438339424346,736.9675475080918
0.265,9.150779628609659,737.0917480219397
0.266,9.154700787484671,737.2392656337984
0.267,9.158044625184052,737.3634993502249
0.268,9.161389636162642,737.4877481949474
0.269,9.164735820796258,737.6120121664362
0.27,9.168083179460861,737.7362912631606
0.271,9.17143171253249,737.8605854835872
0.272,9.175361423637739,738.0082210970534
0.273,9.178712510286177,738.1325485009213
0.274,9.182064772535648,738.2568910236589
0.275,9.185418210762595,738.3812486637232
0.276,9.188772825343504,738.5056214195666
0.277,9.192128616655006,738.6300092896408
0.278,9.196066897181923,738.7777628662227
0.279,9.199425247140853,738.9021839004034
0.28,9.202784775026217,739.0266200439354
0.281,9.20614548121504,739.1510712952601
0.282,9.209507366084388,739.2755376528153
0.283,9.212870430011463,739.4000191150375
0.284,9.216817297179253,739.5478906156629
0.285,9.220182924832242,739.6724052224579
0.286,9.223549732740642,739.7969349289925
0.287,9.22691772128203,739.9214797336922
0.288,9.230286890834103,740.0460396349816
0.289,9.233657241774596,740.1706146312806
0.29,9.237612712830249,740.318604016296
0.291,9.240985632583012,740.4432121374346
0.292,9.244359734923728,740.5678353486076
0.293,9.247735020230554,740.6924736482256
0.294,9.25111148888174,740.817127034697
0.295,9.254489141255643,740.9417955064283
0.296,9.258453233473922,741.0899027355945
0.297,9.261833459754348,741.2146043122331
0.298,9.265214870958808,741.3393209691061
0.299,9.268597467466066,741.46405270461
0.3,9.271981249654942,741.5887995171379
0.301,9.275366217904379,741.7135614050809
0.302,9.279338948587881,741.861786437574
0.303,9.282726495845955,741.9865814102908
0.304,9.286115230367749,742.1113914533489
0.305,9.289505152532586,742.2362165651299
0.306,9.292896262719873,742.3610567440113
0.307,9.296288561309115,742.4859119883682
0.308,9.29968204867991,742.6107822965743
0.309,9.303664838921941,742.7591441005848
0.31,9.307060911239828,742.8840474698985
0.311,9.310458173544566,743.0089658979316
0.312,9.313856626216156,743.1338993830468
0.313,9.317256269634669,743.2588479236041
0.314,9.320657104180277,743.383811517961
0.315,9.32464857039048,743.5322910349621
0.316,9.328051995002333,743.6572876698569
0.317,9.331456611948463,743.7822993533748
0.318,9.334862421609396,743.9073260838612
0.319,9.338269424365794,744.0323678596613
0.32,9.341677620598416,744.1574246791174
0.321,9.345677780167348,744.3060218664157
0.322,9.349088571593255,744.4311117056372
0.323,9.352500557704392,744.5562165832889
0.324,9.355913738881867,744.6813364977007
0.325,9.35932811550693,744.8064714472033
0.326,9.362743687960899,744.9316214301226
0.327,9.366752558306995,745.0803362444312
0.328,9.370170731089171,745.2055192261396
0.329,9.373590100911096,745.3307172359897
0.33,9.377010668154497,745.4559302722977
0.331,9.380432433201152,745.5811583333765
0.332,9.38385539643297,745.7064014175369
0.333,9.387872995002517,745.8552338149716
0.334,9.391298563705353,745.9805098767412
0.335,9.394725331806038,746.1058009562685
0.336,9.398153299686856,746.2311070518538
0.337,9.40158246773021,746.3564281617955
0.338,9.405012836318539,746.4817642843881
0.339,9.4090391805857,746.6307142204653
0.34,9.412472159795744,746.7560832992815
0.341,9.4159063407653,746.8814673853753
0.342,9.419341723877237,747.0068664770316
0.343,9.422778309514515,747.1322805725331
0.344,9.426216098060204,747.2577096701592
0.345,9.430251205527,747.4067770997933
0.346,9.433691609852984,747.5322391320524
0.347,9.437133218303698,747.657716161012
0.348,9.440576031262605,747.7832081849417
0.349,9.44402004911324,747.9087152021083
0.35,9.447465272239256,748.034237210777
0.351,9.451509160435645,748.1834220882793
0.352,9.454957004508422,748.308977009783
0.353,9.458406055074738,748.434546917314
0.354,9.461856312518627,748.560131809126
0.355,9.46530777722421,748.6857316834711
0.356,9.468760449575694,748.8113465385965
0.357,9.472813136059528,748.9606488176735
0.358,9.476268434532129,749.0862965636297
0.359,9.479724941870675,749.2119592848442
0.36,9.483182658459732,749.3376369795528
0.361,9.48664158468401,749.4633296459922
0.362,9.490101720928292,749.5890372823947
0.363,9.494163223285305,749.7384569161432
0.364,9.497625990832951,749.864197421164
0.365,9.501089969622475,749.9899528905746
0.366,9.504555160039066,750.1157233225978
0.367,9.508021562467961,750.2415087154515
0.368,9.511489177294536,750.3673090673527
0.369,9.515559513138397,750.5168460082606
0.37,9.519029764458468,750.6426792063592
0.371,9.522501229399928,750.768527357882
0.372,9.525973908348552,750.894390461036
0.373,9.529447801690148,751.0202685140234
0.374,9.532922909810669,751.1461615150453
0.375,9.536399233096152,751.2720694623
0.376,9.54047985545953,751.4217425868494
0.377,9.543958821279212,751.5476833539666
0.378,9.547439003489703,751.6736390616351
0.379,9.550920402477438,751.7996097080427
0.38,9.554403018628896,751.9255952913728
0.381,9.557886852330714,752.0515958098086
0.382,9.56197634635672,752.201386136637
0.383,9.56546282779993,752.3274194520612
0.384,9.568950528021173,752.4534676968582
0.385,9.572439447407453,752.5795308691997
0.386,9.57592958634588,752.7056089672551
0.387,9.579420945223609,752.8317019891894
0.388,9.583519328614257,752.9816094688407
0.389,9.587013340448454,753.1077352646784
0.39,9.59050857345149,753.2338759786119
0.391,9.594005028010942,753.3600316087969
0.392,9.597502704514485,753.4862021533868
0.393,9.601001603349888,753.6123876105316
0.394,9.605108893835126,753.7624121929304
0.395,9.608610450849977,753.888630400682
0.396,9.612113231428014,754.0148635151529
0.397,9.615617235957417,754.1411115344835
0.398,9.619122464826429,754.2673744568101
0.399,9.622628918423407,754.3936522802679
0.4,9.626745133761192,754.5437939147188
0.401,9.630254250768479,754.670104465274
0.402,9.633764593736894,754.7964299110733
0.403,9.637276163055189,754.9227702502405
0.404,9.640788959112184,755.0491254808962
0.405,9.644302982296797,755.1754956011584
0.406,9.648428140273058,755.3257542363426
0.407,9.651944832106734,755.4521570599799
0.408,9.655462752303082,755.5785747672874
0.409,9.658981901251376,755.705007356371
0.41,9.66250227934103,755.8314548253352
0.411,9.666023886961542,755.9579171722821
0.412,9.669546724502498,756.0843943953099
0.413,9.673682296022648,756.234788851629
0.414,9.677207808309856,756.3612987501801
0.415,9.680734551754695,756.4878235188172
0.416,9.684262526747114,756.6143631556264
0.417,9.687791733677193,756.7409176586937
0.418,9.691322172935095,756.8674870261017
0.419,9.695466725641989,757.0179983699948
0.42,9.698999844901962,757.144600388741
0.421,9.70253419772879,757.2712172657805
0.422,9.706069784512987,757.3978489991833
0.423,9.709606605645229,757.5244955870197
0.424,9.713144661516244,757.6511570273555
0.425,9.717298213284291,757.801785205517
0.426,9.720838954421083,757.9284792727907
0.427,9.7243809315375,758.0551881864637
0.428,9.727924145024694,758.1819119445927
0.429,9.73146859527385,758.3086505452279
0.43,9.735014282676303,758.4354039864206
0.431,9.739176851407924,758.5861489449125
0.432,9.742725229347752,758.7129349884264
0.433,9.74627484568356,758.8397358663454
0.434,9.749825700807058,758.9665515767083
0.435,9.753377795110065,759.0933821175522
0.436,9.756931128984435,759.2202274869088
0.437,9.760485702822178,759.3470876828096
0.438,9.764658771591591,759.4979682019051
0.439,9.768216042102045,759.6248609712321
0.44,9.771774553820691,759.7517685608904
0.441,9.775334307139904,759.8786909689002
0.442,9.77889530245217,760.0056281932782
0.443,9.782457540150023,760.1325802320385
0.444,9.786639664683246,760.2835774126125
0.445,9.790204604342467,760.4105619997122
0.446,9.793770787633946,760.5375613949294
0.447,9.797338214950633,760.6645755962664
0.448,9.800906886685596,760.7916046017249
0.449,9.804476803231939,760.9186484093008
0.45,9.808668001519994,761.0697621954005
0.451,9.812240625324252,761.1968385260119
0.452,9.815814495188407,761.3239296524237
0.453,9.819389611505976,761.4510355726222
0.454,9.82296597467059,761.5781562845914
0.455,9.826543585075978,761.7052917863127
0.456,9.830122443115917,761.8324420757635
0.457,9.834324207530317,761.9836912159406
0.458,9.837905778992493,762.1108739987286
0.459,9.841488599339861,762.2380715628673
0.46,9.845072668966628,762.3652839063245
0.461,9.848657988267082,762.4925110270635
0.462,9.852244557635624,762.6197529230469
0.463,9.856455434796661,762.7711185455164
0.464,9.860044722901044,762.8983929090583
0.465,9.863635262325943,763.025682041411
0.466,9.867227053466154,763.1529859405259
0.467,9.870820096716546,763.2803046043505
0.468,9.874414392472094,763.4076380308301
0.469,9.87863440045947,763.5591200776022
0.47,9.882231420272348,763.6864859456401
0.471,9.88582969384465,763.8138665698468
0.472,9.889429221571742,763.9412619481561
0.473,9.89303000384907,764.068672078499
0.474,9.896632041072172,764.1960969588034
0.475,9.90086119799363,764.3476953712391
0.476,9.904465964603439,764.4751526668803
0.477,9.908071987415177,764.6026247059453
0.478,9.91167926682473,764.7301114863493
0.479,9.915287803228134,764.8576130060067
0.48,9.91889759702151,764.9851292628289
0.481,9.922508648601061,765.1126602547241
0.482,9.92674845913466,765.2643937379837
0.483,9.930362246303373,765.3919571144485
0.484,9.933977292516547,765.5195352193863
0.485,9.937593598170736,765.647128050693
0.486,9.94121116366266,765.7747356062634
0.487,9.944829989389087,765.9023578839887
0.488,9.949078988100949,766.0542076038383
0.489,9.95270055476297,766.1818622394303
0.49,9.956323382919617,766.3095315905235
0.491,9.95994747296803,766.4372156549969
0.492,9.96357282530549,766.5649144307282
0.493,9.967199440329352,766.6926279155916
0.494,9.971457645415944,766.8445938113255
0.495,9.975087006729714,766.9723396271293
0.496,9.978717631991827,767.100100145357
0.497,9.982349521600044,767.2278753638726
0.498,9.985982675952172,767.3556652805346
0.499,9.98961709544616,767.4834698932013
0.5,9.993252780480034,767.6112891997273
0.501,9.997521706021457,767.7633899422761
0.502,10.00116014357665,767.891241548152
0.503,10.004799847935804,768.0191078411164
0.504,10.008440819497341,768.1469888190129
0.505,10.012083058659739,768.2748844796799
0.506,10.01572656582162,768.4027948209565
0.507,10.020004737173823,768.5550116058222
0.508,10.02365100222838,768.6829542190355
0.509,10.027298536548315,768.8109115060325
0.51,10.030947340532624,768.9388834646395
0.511,10.034597414580407,769.0668700926793
0.512,10.038248759090802,769.1948713879723
0.513,10.041901374463094,769.3228873483359
0.514,10.046190312160777,769.4752388224081
0.515,10.049845691676957,769.603287022551
0.516,10.053502343323073,769.731349880876
0.517,10.057160267498794,769.8594273951899
0.518,10.06081946460384,769.9875195632939
0.519,10.06447993503807,770.1156263829894
0.52,10.068778158113835,770.2680937627116
0.521,10.072441398080345,770.3962327942834
0.522,10.07610591264591,770.5243864705034
0.523,10.079771702210754,770.6525547891597
0.524,10.083438767175226,770.7807377480393
0.525,10.087107107939707,770.9089353449241
0.526,10.091414634739522,771.0615185660583
0.527,10.095085750432556,771.189748346688
0.528,10.098758143197319,771.3179927583253
0.529,10.102431813434613,771.4462517987412
0.53,10.106106761545341,771.5745254657043
0.531,10.109782987930513,771.7028137569811
0.532,10.113460492991182,771.8311166703328
0.533,10.117778853527941,771.9838343436752
0.534,10.121459139797308,772.1121694077771
0.535,10.125140706016008,772.2405190868924
0.536,10.128823552585526,772.3688833787726
0.537,10.132507679907443,772.4972622811663
0.538,10.136193088383383,772.6256557918175
0.539,10.140520792403496,772.7784891653282
0.54,10.144208987501434,772.9069147981035
0.541,10.14789846502907,773.0353550320192
0.542,10.151589225388452,773.16380986481
0.543,10.15528126898173,773.292279294206
0.544,10.158974596211145,773.4207633179362
0.545,10.162669207478995,773.549261933724
0.546,10.16700779150203,773.7022295928712
0.547,10.1707051956918,773.8307602972104
0.548,10.174403885197805,773.9593055864265
0.549,10.178103860422764,774.087865458232
0.55,10.18180512176948,774.2164399103382
0.551,10.185507669640884,774.3450289404531
0.552,10.189855637037883,774.4981121553664
0.553,10.19356098326152,774.626733244907
0.554,10.197267617289413,774.7553689052173
0.555,10.200975539524872,774.8840191339938
0.556,10.204684750371284,775.0126839289295
0.557,10.208395250232135,775.1413632877147
0.558,10.212107039510958,775.2700572080355
0.559,10.216465933329337,775.423274538327
0.56,10.220180527280105,775.5520004839201
0.561,10.223896411930587,775.680740983746
0.562,10.227613587684752,775.809496035481
0.563,10.231332054946659,775.9382656367973
0.564,10.235051814120459,776.0670497853646
0.565,10.239420131334796,776.2203825238398
0.566,10.24314270062785,776.3491986680513
0.567,10.246866563116333,776.4780293521542
0.568,10.250591719204792,776.606874573807
0.569,10.25431816929785,776.7357343306642
0.57,10.258045913800224,776.8646086203777
0.571,10.261774953116735,776.9934974405967
0.572,10.2661542433234,777.1469641204781
0.573,10.269886099098608,777.2758849016006
0.574,10.273619250973606,777.4048202058036
0.575,10.277353699353615,777.5337700307248
0.576,10.281089444643921,777.6627343739982
0.577,10.284826487249912,777.7917132332544
0.578,10.2892152410059,777.945295170533
0.579,10.292955105534912,778.0743059605591
0.58,10.296696268667135,778.2033312590883
0.581,10.300438730808308,778.3323710637392
0.582,10.304182492364307,778.4614253721275
0.583,10.307927553741086,778.5904941818674
0.584,10.311673915344715,778.7195774905697
0.585,10.316073688816486,778.8732931915405
0.586,10.319822878702318,779.0024083956816
0.587,10.323573370104608,779.1315380912379
0.588,10.3273251634298,779.2606822758079
0.589,10.33107825908441,779.3898409469865
0.59,10.334832657475078,779.519014102367
0.591,10.339241934780897,779.6728449067191
0.592,10.342999166935096,779.802049926895
0.593,10.346757703116827,779.9312694236702
0.594,10.350517543733062,780.060503394624
0.595,10.354278689190913,780.1897518373335
0.596,10.358041139897576,780.3190147493737
0.597,10.361804896260335,780.4482921283156
0.598,10.366225240157965,780.6022565148791
0.599,10.36999183666317,780.7315657226918
0.6,10.373759740118079,780.8608893897385
0.601,10.37752895093032,780.9902275135765
0.602,10.38129946950768,781.1195800917636
0.603,10.385071296258008,781.2489471218522
0.604,10.388844431589279,781.3783286013944
0.605,10.393275867335502,781.5324264710248
0.606,10.397051849198734,781.6618397431913
0.607,10.400829140938574,781.7912674570742
0.608,10.404607742963382,781.9207096102123
0.609,10.408387655681574,782.0501662001407
0.61,10.412168879501683,782.1796372243926
0.611,10.416609881274235,782.3338499542268
0.612,10.420393957133735,782.463352739669
0.613,10.424179345392686,782.5928699516412
0.614,10.427966046459975,782.7224015876634
0.615,10.431754060744607,782.8519476452526
0.616,10.435543388655683,782.9815081219234
0.617,10.43933403060238,783.1110830151868
0.618,10.44378617133407,783.2654290407585
0.619,10.447579671729379,783.3950356583648
0.62,10.451374487459978,783.5246566847045
0.621,10.455170618935401,783.6542921172755
0.622,10.458968066565333,783.7839419535741
0.623,10.462766830759524,783.9136061910932
0.624,10.467228578135654,784.0680669145543
0.625,10.471030206302844,784.1977628444632
0.626,10.474833152335787,784.327473167676
0.627,10.47863741664458,784.4571978816713
0.628,10.482442999639478,784.5869369839277
0.629,10.486249901730814,784.7166904719205
0.63,10.490058123328998,784.8464583431207
0.631,10.494531056927324,785.0010521711501
0.632,10.49834214892742,785.1308516972877
0.633,10.502154561737976,785.2606655986478
0.634,10.505968295769755,785.3904938726895
0.635,10.50978335143367,785.5203365168691
0.636,10.513599729140712,785.6501935286402
0.637,10.51741742930196,785.7800649054531
0.638,10.521901574587275,785.9347917336715
0.639,10.525722151589937,786.064694727642
0.64,10.529544052352524,786.1946120786016
0.641,10.533367277286466,786.3245437839879
0.642,10.537191826803348,786.4544898412358
0.643,10.541017701314813,786.5844502477771
0.644,10.545511515949416,786.7392915178309
0.645,10.549340272852733,786.869283508772
0.646,10.553170356058153,786.9992898408951
0.647,10.557001765977738,787.1293105116204
0.648,10.56083450302357,787.259345518363
0.649,10.564668567607898,787.3893948585375
0.65,10.568503960143028,787.5194585295535
0.651,10.57300903396217,787.6744326026705
0.652,10.57684731534832,787.804527819695
0.653,10.580686925994929,787.9346373593825
0.654,10.584527866314648,788.0647612191292
0.655,10.588370136720297,788.1948993963312
0.656,10.592213737624755,788.3250518883798
0.657,10.596058669441,788.4552186926647
0.658,10.60057502803547,788.6103254612452
0.659,10.604422855172464,788.7405237728165
0.66,10.608272014532998,788.8707363883757
0.661,10.612122506530406,789.0009633052985
0.662,10.615974331578153,789.1312045209584
0.663,10.619827490089781,789.2614600327258
0.664,10.623681982478931,789.3917298379681
0.665,10.628209651483562,789.5469691932789
0.666,10.63206704567375,789.6772704667538
0.667,10.635925775055327,789.807586025387
0.668,10.639785840042281,789.937915866532
0.669,10.643647241048743,790.068259987541
0.67,10.647509978488916,790.1986183857623
0.671,10.652047401959983,790.353971824753
0.672,10.655913046786734,790.4843616573482
0.673,10.659780029362883,790.6147657587808
0.674,10.663648350102983,790.7451841263846
0.675,10.667518009421736,790.8756167574936
0.676,10.671389007733909,791.0060636494371
0.677,10.675261345454372,791.1365247995419
0.678,10.67981012714953,791.2920106199925
0.679,10.683685378756493,791.4225031647969
0.68,10.687561971089536,791.5530099593176
0.681,10.691439904563877,791.6835310008677
0.682,10.69531917959487,791.8140662867588
0.683,10.699199796597956,791.9446158142989
0.684,10.703081755988652,792.0751795807922
0.685,10.707641921668676,792.2307976707012
0.686,10.711526801456337,792.3613927918839
0.687,10.71541302495151,792.4920021435058
0.688,10.719300592570066,792.6226257228577
0.689,10.723189504728028,792.7532635272299
0.69,10.72707976184149,792.8839155539076
0.691,10.73097136432665,793.0145818001743
0.692,10.73554293979632,793.1703320463887
0.693,10.739437469199446,793.3010296069976
0.694,10.743333345296216,793.43174137861
0.695,10.747230568503225,793.5624673584966
0.696,10.751129139237126,793.6932075439238
0.697,10.755029057914681,793.8239619321562
0.698,10.759610473533282,793.979825889256
0.699,10.763513324749377,794.1106115568556
0.7,10.767417525232924,794.2414114186156
0.701,10.771323075401035,794.3722254717867
0.702,10.775229975670948,794.5030537136164
0.703,10.779138226459986,794.63389614135
0.704,10.783047828185563,794.7647527522292
0.705,10.787640701723998,794.9207486520978
0.706,10.791553242528698,795.0516365013676
0.707,10.795467135595848,795.1825385250689
0.708,10.799382381343202,795.313454720429
0.709,10.80329898018867,795.4443850846745
0.71,10.807216932550224,795.5753296150276
0.711,10.811136238845956,795.7062883087091
0.712,10.81574059623488,795.8624160348763
0.713,10.819662848160844,795.9934059256312
0.714,10.823586455348938,796.1244099709274
0.715,10.827511418217641,796.2554281679722
0.716,10.831437737185487,796.3864605139693
0.717,10.835365412671122,796.517507006119
0.718,10.839294445093284,796.6485676416189
0.719,10.843910312307369,796.8048270764481
0.72,10.847842296921383,796.9359188673628
0.721,10.851775639801978,797.0670247927704
0.722,10.855710341368287,797.1981448498562
0.723,10.859646402039507,797.329279035801
0.724,10.863583822234933,797.4604273477828
0.725,10.86752260237397,797.5915897829773
0.726,10.872150005431864,797.7479808076581
0.727,10.876091744334879,797.8791743562658
0.728,10.880034844513654,798.0103820191581
0.729,10.883979306387973,798.1416037934969
0.73,10.887925130377692,798.272839676441
0.731,10.891872316902786,798.404089665147
0.732,10.89582086638325,798.5353537567655
0.733,10.900459831347565,798.6918762513114
0.734,10.904411346174653,798.8231714139984
0.735,10.908364225291395,798.9544806705998
0.736,10.912318469118235,799.0858040182553
0.737,10.916274078075686,799.2171414541016
0.738,10.920231052584382,799.3484929752726
0.739,10.924879988847707,799.5051285862769
0.74,10.9288399343766,799.6365111418145
0.741,10.932801246792772,799.7679077736146
0.742,10.936763926517235,799.8993184787993
0.743,10.940727973971066,800.0307432544839
0.744,10.944693389575436,800.162182097783
0.745,10.948660173751628,800.2936350058076
0.746,10.953320720531162,800.4504018603537
0.747,10.957290482329688,800.5818857597551
0.748,10.961261614038166,800.7133837147487
0.749,10.965234116078266,800.8448957224327
0.75,10.969207988871721,800.9764217799012
0.751,10.973183232840348,801.1079618842451
0.752,10.977159848406087,801.2395160325524
0.753,10.981832031890152,801.3964140072611
0.754,10.985811631690844,801.5279991036081
0.755,10.989792604428878,801.6595982347143
0.756,10.993774950526566,801.7912113976546
0.757,10.997758670406299,801.9228385895002
0.758,11.001743764490577,802.0544798073201
0.759,11.005730233201927,802.1861350481779
0.76,11.010414079622796,802.3431640184765
0.761,11.014403539192184,802.4748501636874
0.762,11.01839437473102,802.606550322661
0.763,11.022386586662256,802.7382644924492
0.764,11.026380175408935,802.8699926701005
0.765,11.030375141394208,803.0017348526607
0.766,11.034371485041257,803.1334910371704
0.767,11.03906702067507,803.2906508772845
0.768,11.043066361813707,803.4224379221109
0.769,11.047067081958584,803.5542389595392
0.77,11.051069181533306,803.6860539865986
0.771,11.055072660961565,803.8178830003145
0.772,11.059077520667172,803.9497259977098
0.773,11.063083761073964,804.0815829758028
0.774,11.067791012240788,804.2388735587572
0.775,11.071800256783165,804.3707613527774
0.776,11.07581088337327,804.502663118075
0.777,11.079822892435365,804.6345788516559
0.778,11.083836284393813,804.7665085505223
0.779,11.087851059673014,804.8984522116731
0.78,11.091867218697518,805.0304098321051
0.781,11.096586211761302,805.187831029715
0.782,11.10060538157584,805.3198194213326
0.783,11.104625936484288,805.4518217627373
0.784,11.10864787691156,805.5838380509115
0.785,11.112671203282671,805.7158682828355
0.786,11.116695916022676,805.8479124554847
0.787,11.12072201555678,805.9799705658321
0.788,11.125452776925334,806.1375222487004
0.789,11.129481893914352,806.2696110851379
0.79,11.133512399048154,806.4017138497062
0.791,11.1375442927523,806.5338305393653
0.792,11.141577575452457,806.6659611510721
0.793,11.145612247574338,806.7981056817785
0.794,11.149648309543789,806.9302641284347
0.795,11.15439086566879,807.0879461659471
0.796,11.15842995176847,807.2201352932419
0.797,11.162470429068495,807.3523383268458
0.798,11.166512297995087,807.4845552636955
0.799,11.170555558974511,807.616786100723
0.8,11.174600212433182,807.7490308348589
0.801,11.17864625879759,807.8812894630299
0.802,11.183400636174541,808.0391017233496
0.803,11.187449713354907,808.17139098635
0.804,11.191500184795846,808.3036941336704
0.805,11.195552050924245,808.4360111622252
0.806,11.199605312167016,808.568342068922
0.807,11.203659968951216,808.7006868506681
0.808,11.207716021703982,808.8330455043666
0.809,11.212482246872217,808.9909878544318
0.81,11.216541337137093,809.1233770967931
0.811,11.220601824727451,809.2557802013183
0.812,11.224663710070827,809.3881971648973
0.813,11.22872699359478,809.5206279844155
0.814,11.232791675727027,809.6530726567563
0.815,11.236857756895349,809.7855311787997
0.816,11.241635856437998,809.943603484316
0.817,11.245704981824973,810.076092548496
0.818,11.249775507607033,810.2085954525155
0.819,11.253847434212302,810.3411121932402
0.82,11.257920762069043,810.4736427675324
0.821,11.261995491605605,810.6061871722527
0.822,11.266071623250415,810.7387454042567
0.823,11.270149157432014,810.8713174603985
0.824,11.274940818800024,811.0295375976053
0.825,11.279021404854145,811.1621401424129
0.826,11.283103394806368,811.294756501408
0.827,11.287186789085613,811.4273866714313
0.828,11.291271588120866,811.5600306493184
0.829,11.2953577923412,811.6926884319014
0.83,11.29944540217582,811.8253600160112
0.831,11.304248994936323,811.9837098171308
0.832,11.30833966337223,812.1164118426062
0.833,11.312431738785794,812.2491276595837
0.834,11.316525221606579,812.3818572648789
0.835,11.320620112264221,812.5146006553045
0.836,11.324716411188467,812.64735782767
0.837,11.328814118809095,812.7801287787794
0.838,11.333629669682628,812.9386081056235
0.839,11.337730442643705,813.0714094504359
0.84,11.341832625666642,813.2042245638936
0.841,11.345936219181661,813.3370534427895
0.842,11.350041223619042,813.4698960839123
0.843,11.354147639409174,813.6027524840476
0.844,11.358255466982477,813.7356226399756
0.845,11.363083002733315,813.894231353106
0.846,11.367193902396556,814.0271318547075
0.847,11.37130621521054,814.1600461019286
0.848,11.375419941606102,814.2929740915373
0.849,11.379535082014172,814.4259158202976
0.85,11.383651636865789,814.5588712849725
0.851,11.387769606592018,814.6918404823176
0.852,11.392609154028104,814.85057844104
0.853,11.396730202604125,814.9835779356638
0.854,11.40085266742439,815.1165911527091
0.855,11.404976548920382,815.2496180889201
0.856,11.409101847523672,815.3826587410374
0.857,11.413228563665951,815.5157131057991
0.858,11.417356697778928,815.648781179938
0.859,11.42220828375191,815.8076482422999
0.86,11.426339503484868,815.940746564954
0.861,11.430472142560205,816.07385858666
0.862,11.434606201410055,816.2069843041377
0.863,11.438741680466658,816.340123714105
0.864,11.442878580162278,816.4732768132731
0.865,11.447016900929329,816.6064435983528
0.866,11.451156643200301,816.739624066051
0.867,11.456021978334453,816.8986379781645
0.868,11.4601648139517,817.0318486383493
0.869,11.464309072446872,817.1650729707399
0.87,11.468454754252857,817.2983109720287
0.871,11.472601859802566,817.4315626389047
0.872,11.476750389529059,817.5648279680535
0.873,11.480900343865459,817.6981069561576
0.874,11.485777775128518,817.8572496638884
0.875,11.48993082960347,817.9905587949252
0.876,11.494085310064401,818.1238815744281
0.877,11.49824121694483,818.2572179990663
0.878,11.50239855067831,818.390568065503
0.879,11.506557311698545,818.5239317704007
0.88,11.510717500439307,818.6573091104178
0.881,11.515607054819911,818.816580467828
0.882,11.519770350501815,818.9499879008516
0.883,11.523935075282383,819.0834089584292
0.884,11.528101229595714,819.2168436372027
0.885,11.532268813876067,819.3502919338139
0.886,11.536437828557764,819.4837538448998
0.887,11.54060827407522,819.6172293670948
0.888,11.545509978605596,819.7766292269675
0.889,11.549683537877081,819.9101347918701
0.89,11.553858529364508,820.0436539572386
0.891,11.558034953502627,820.1771867196913
0.892,11.562212810726328,820.3107330758453
0.893,11.566392101470573,820.4442930223134
0.894,11.570572826170425,820.5778665557049
0.895,11.574754985261043,820.7114536726268
0.896,11.579670566317686,820.8709996894524
0.897,11.583855846937196,821.0046167912961
0.898,11.58804256332992,821.1382474659368
0.899,11.592230715931402,821.271891709967
0.9,11.596420305177238,821.4055495199758
0.901,11.600611331503153,821.5392208925475
0.902,11.604803795344882,821.6729058242638
0.903,11.609731584529257,821.832580024204
0.904,11.613927176734753,821.9662948897397
0.905,11.618124207840623,822.1000233036106
0.906,11.622322678283021,822.2337652623837
0.907,11.62652258849819,822.3675207626229
0.908,11.630723938922486,822.5012898008898
0.909,11.634926729992287,822.6350723737389
0.91,11.639866754473259,822.7948746055298
0.911,11.644072680751961,822.9286870607194
0.912,11.648280049062768,823.0625130396049
0.913,11.65248885984247,823.1963525387287
0.914,11.656699113527951,823.3302055546305
0.915,11.6609108105562,823.4640720838462
0.916,11.665123951364238,823.5979521229073
0.917,11.669338536389237,823.7318456683429
0.918,11.674292534558633,823.8917935148658
0.919,11.67851026260408,824.0257168835052
0.92,11.682729436255377,824.159653747542
0.921,11.686950055950073,824.2936041034922
0.922,11.691172122125732,824.4275679478643
0.923,11.695395635220066,824.5615452771672
0.924,11.699620595670867,824.6955360879048
0.925,11.704586887406869,824.8556116382236
0.926,11.708814997745163,824.9896322198736
0.927,11.713044556830857,825.1236662719033
0.928,11.717275565102124,825.2577137908023
0.929,11.72150802299717,825.3917747730554
0.93,11.725741930954339,825.5258492151457
0.931,11.729977289412066,825.6599371135535
0.932,11.734214098808854,825.7940384647536
0.933,11.739194430725052,825.9542592518862
0.934,11.743434397845803,826.0883903139337
0.935,11.747675817298878,826.2225348176289
0.936,11.751918689523121,826.3566927594313
0.937,11.756163014957522,826.4908641358
0.938,11.760408794041133,826.625048943189
0.939,11.764656027213125,826.7592471780496
0.94,11.769648711164592,826.9195953349314
0.941,11.77389910894944,827.0538232275294
0.942,11.7781509622179,827.1880645363733
0.943,11.782404271409511,827.3223192578996
0.944,11.786659036963867,827.456587388541
0.945,11.790915259320665,827.5908689247268
0.946,11.7951729389197,827.7251638628836
0.947,11.799432076200803,827.8594721994324
0.948,11.804438867050285,828.0199652083542
0.949,11.808701176805567,828.154303141639
0.95,11.812964945640521,828.2886544620007
0.951,11.817230173995373,828.4230191658471
0.952,11.821496862310461,828.5573972495822
0.953,11.82576501102621,828.6917887096075
0.954,11.830034620583078,828.8261935423187
0.955,11.835053822134933,828.9868135809071
0.956,11.839326611076665,829.1212479564198
0.957,11.843600862259148,829.2556956932234
0.958,11.847876576123246,829.3901567877012
0.959,11.852153753109933,829.5246312362316
0.96,11.856432393660212,829.6591190351893
0.961,11.860712498215241,829.7936201809472
0.962,11.864994067216234,829.9281346698722
0.963,11.870027442609532,830.0888991688144
0.964,11.8743121988815,830.2234431385967
0.965,11.878598421001344,830.3580004400609
0.966,11.882886109410665,830.4925710695608
0.967,11.887175264551102,830.6271550234451
0.968,11.891465886864435,830.7617522980611
0.969,11.895757976792517,830.8963628897513
0.97,11.90080382175336,831.0572540721921
0.971,11.905099105884839,831.1918940899748
0.972,11.909395859034989,831.3265474132651
0.973,11.913694081646048,831.4612140383917
0.974,11.917993774160282,831.5958939616785
0.975,11.9222949370201,831.7305871794465
0.976,11.926597570667985,831.8652936880136
0.977,11.930901675546524,832.0000134836943
0.978,11.935961761517554,832.1610487278382
0.979,11.940269068510316,832.2957978867166
0.98,11.944577848139907,832.4305603210482
0.981,11.94888810084928,832.565336027133
0.982,11.953199827081457,832.7001250012665
0.983,11.957513027279552,832.834927239741
0.984,11.961827701886774,832.9697427388451
0.985,11.966900316488283,833.1309043141887
0.986,11.97121820016382,833.2657491208881
0.987,11.975537559656672,833.4006071764766
0.988,11.97985839541042,833.5354784772276
0.989,11.984180707868713,833.6703630194112
0.99,11.988504497475299,833.8052607992944
0.991,11.99282976467401,833.9401718131401
0.992,11.997156509908725,834.0750960572068
0.993,12.002243432914156,834.2364012885865
0.994,12.006573395152644,834.3713547763961
0.995,12.010904836837664,834.5063214825941
0.996,12.015237758413495,834.6413014034254
0.997,12.019572160324516,834.776294535131
0.998,12.023908043015139,834.9113008739467
0.999,12.028245406929926,835.0463204161069
1.0,12.032584252513505,835.1813531578413
1.001,12.037685519906276,835.342801826282
1.002,12.042027590442183,835.4778637473944
1.003,12.046371144059671,835.6129388561557
1.004,12.050716181203743,835.7480271487809
1.005,12.055062702319436,835.88312862148
1.006,12.05941070785194,836.0182432704618
1.007,12.063760198246504,836.1533710919302
1.008,12.068874085170775,836.3149455395975
1.009,12.07322680750484,836.4501024835469
1.01,12.077581016115753,836.5852725879753
1.011,12.081936711449144,836.7204558490722
1.012,12.086293893950677,836.855652263022
1.013,12.090652564066163,836.9908618260072
1.014,12.095012722241476,837.1260845342057
1.015,12.099374368922597,837.2613203837931
1.016,12.104502667971815,837.4230378519909
1.017,12.10886755456552,837.5583027587254
1.018,12.113233931082052,837.6935807947457
1.019,12.117601797967758,837.8288719562123
1.02,12.121971155669053,837.964176239281
1.021,12.126342004632432,838.0994936401038
1.022,12.130714345304497,838.2348241548301
1.023,12.135088178131888,838.3701677796031
1.024,12.140230925472409,838.5320280435388
1.025,12.144608006198489,838.6674006596065
1.026,12.148986580499239,838.8027863735267
1.027,12.153366648821692,838.9381851814287
1.028,12.15774821161297,839.0735970794389
1.029,12.162131269320303,839.2090220636803
1.03,12.166515822390942,839.3444601302702
1.031,12.171671280626358,839.5064456067739
1.032,12.176059088615768,839.6419126064508
1.033,12.18044839338982,839.7773926761987
1.034,12.184839195396172,839.9128858121212
1.035,12.189231495082579,840.0483920103188
1.036,12.193625292896831,840.1839112668866
1.037,12.198020589286866,840.3194435779175
1.038,12.202417384700677,840.4549889395009
1.039,12.207587359307935,840.6171167842228
1.04,12.211987417651033,840.7526910120611
1.041,12.216388976441488,840.8882782780784
1.042,12.220792036127683,841.0238785783494
1.043,12.22519659715802,841.1594919089422
1.044,12.229602659981055,841.2951182659242
1.045,12.234010225045411,841.4307576453582
1.046,12.238419292799794,841.5664100433025
1.047,12.243603820127532,841.7286800255608
1.048,12.248016158834666,841.8643612224031
1.049,12.252430001657675,842.0000554252886
1.05,12.256845349045587,842.135762630259
1.051,12.261262201447574,842.2714828333557
1.052,12.265680559312875,842.4072160306142
1.053,12.270100423090826,842.5429622180682
1.054,12.274521793230805,842.6787213917453
1.055,12.279720909690871,842.8411332787957
1.056,12.284145558820034,842.9769211834874
1.057,12.288571715739302,843.1127220618382
1.058,12.292999380898461,843.2485359098619
1.059,12.297428554747373,843.3843627235681
1.06,12.301859237736,843.5202024989642
1.061,12.306291430314326,843.656055232051
1.062,12.310725132932482,843.7919209188275
1.063,12.315938874999933,843.9544744758578
1.064,12.32037586465657,844.0903688252359
1.065,12.324814365783364,844.2262761156439
1.066,12.329254378830788,844.3621963430654
1.067,12.333695904249419,844.4981295034802
1.068,12.338138942489856,844.6340755928626
1.069,12.342583494002849,844.7700346071856
1.07,12.34702955923921,844.9060065424172
1.071,12.352257963452107,845.068701532534
1.072,12.356707323789156,845.2047020614235
1.073,12.36115819928216,845.3407154984665
1.074,12.365610590382246,845.4767418396137
1.075,12.370064497540708,845.6127810808163
1.076,12.374519921208872,845.7488332180185
1.077,12.378976861838165,845.8848982471619
1.078,12.384218164986528,846.0477172460055
1.079,12.38867840780329,846.1838108078757
1.08,12.393140169015737,846.3199172488476
1.081,12.397603449075609,846.456036564845
1.082,12.4020682484348,846.5921687517911
1.083,12.406534567545261,846.7283138056043
1.084,12.411002406859039,846.8644717221998
1.085,12.415471766828276,847.0006424974893
1.086,12.420727800899636,847.1636024790505
1.087,12.42520047114267,847.2998017171201
1.088,12.429674663477881,847.4360138009438
1.089,12.434150378357772,847.5722387264186
1.09,12.438627616234914,847.7084764894353
1.091,12.443106377561977,847.8447270858828
1.092,12.447586662791654,847.9809905116437
1.093,12.452068472376787,848.117266762599
1.094,12.457339274090366,848.2803674839582
1.095,12.461824402048443,848.4166721272104
1.096,12.466311055800967,848.5529895826216
1.097,12.470799235801113,848.689319846057
1.098,12.475288942502166,848.8256629133775
1.099,12.479780176357428,848.9620187804392
1.1,12.484272937820352,849.0983874430958
1.101,12.488767227344455,849.2347688971973
1.102,12.49405283348217,849.3980101133212
1.103,12.498550449491152,849.5344198886974
1.104,12.503049595002523,849.6708424423849
1.105,12.507550270470173,849.8072777702184
1.106,12.51205247634802,849.9437258680267
1.107,12.51655621309012,850.0801867316366
1.108,12.521061481150594,850.2166603568706
1.109,12.525568280983684,850.353146739548
1.11,12.530868728390145,850.5165282032834
1.111,12.535378862832783,850.6530428356707
1.112,12.539890530491457,850.7895702122703
1.113,12.544403731820685,850.9261103288832
1.114,12.548918467275143,851.0626631813097
1.115,12.553434737309557,851.199228765345
1.116,12.55795254237877,851.3358070767808
1.117,12.562471882937626,851.4723981114033
1.118,12.5677872085201,851.6359195734706
1.119,12.572309891825954,851.7725387856964
1.12,12.576834112067116,851.9091707077802
1.121,12.581359869698847,852.0458153354937
1.122,12.58588716517648,852.1824726646047
1.123,12.590415998955459,852.3191426908782
1.124,12.594946371491242,852.4558254100727
1.125,12.599478283239444,852.5925208179459
1.126,12.604011734655744,852.7292289102498
1.127,12.609343802196916,852.892907120889
1.128,12.613880605507958,853.0296433092002
1.129,12.61841894993523,853.1663921685023
1.13,12.622958835934712,853.3031536945304
1.131,12.627500263962533,853.4399278830188
1.132,12.632043234474896,853.5767147296959
1.133,12.636587747928068,853.713514230287
1.134,12.641133804778443,853.8503263805151
1.135,12.646480829030864,854.0141440532537
1.136,12.651030245940332,854.1509842262203
1.137,12.655581207697269,854.2878370352818
1.138,12.66013371475841,854.4247024761444
1.139,12.664687767580542,854.561580544509
1.14,12.669243366620556,854.6984712360733
1.141,12.673800512335433,854.8353745465328
1.142,12.678359205182183,854.9722904715751
1.143,12.683721223248035,855.1362473504333
1.144,12.688283284330874,855.2731912243971
1.145,12.692846893998103,855.4101476993045
1.146,12.697412052707135,855.54711677083
1.147,12.701978760915457,855.684098434644
1.148,12.706547019080599,855.8210926864111
1.149,12.711116827660232,855.9580995217951
1.15,12.71568818711208,856.0951189364536
1.151,12.721065236155738,856.2592147632872
1.152,12.725639972033292,856.3962620524978
1.153,12.730216260237759,856.5333219072428
1.154,12.734794101227243,856.6703943231657
1.155,12.739373495459867,856.8074792959035
1.156,12.7439544433939,856.9445768210916
1.157,12.748536945487668,857.0816868943606
1.158,12.753121002199592,857.2188095113372
1.159,12.75851311944759,857.3830440258307
1.16,12.763100560787406,857.5201944424346
1.161,12.767689558202278,857.6573573889069
1.162,12.772280112150924,857.7945328608566
1.163,12.776872223092202,857.9317208538903
1.164,12.781465891485048,858.0689213636117
1.165,12.786061117788494,858.2061343856204
1.166,12.790657902461591,858.3433599155098
1.167,12.795256245963538,858.4805979488717
1.168,12.800665318785182,858.6449877258112
1.169,12.805267056135271,858.7822534740299
1.17,12.809870353773528,858.9195317117676
1.171,12.814475212159477,859.0568224345991
1.172,12.819081631752756,859.194125638096
1.173,12.823689613013006,859.3314413178243
1.174,12.828299156400018,859.4687694693474
1.175,12.832910262373655,859.6061100882251
1.176,12.838334482610929,859.7706379930269
1.177,12.842948990661506,859.9080062506538
1.178,12.847565062760202,860.0453869615799
1.179,12.852182699367235,860.1827801213492
1.18,12.856801900942845,860.3201857254992
1.181,12.861422667947426,860.4576037695657
1.182,12.866045000841417,860.5950342490794
1.183,12.87066890008539,860.732477159569
1.184,12.87610830515824,860.8971429250794
1.185,12.880735614720443,861.0346133976493
1.186,12.885364492096233,861.1720962870369
1.187,12.889994937746504,861.3095915887535
1.188,12.894626952132214,861.4470992983055
1.189,12.899260535714415,861.584619411197
1.19,12.903895688954245,861.7221519229266
1.191,12.908532412312873,861.8596968289893
1.192,12.913170706251606,861.9972541248765
1.193,12.918627198002184,862.1620742153594
1.194,12.92326891152315,862.2996589865899
1.195,12.9279121970903,862.4372561333732
1.196,12.932557055165267,862.5748656511847
1.197,12.937203486209789,862.7124875354951
1.198,12.941851490685618,862.8501217817701
1.199,12.94650106905466,862.9877683854736
1.2,12.951152221778868,863.1254273420637
1.201,12.956623977985794,863.2903847188601
1.202,12.96127855855994,863.4280710729279
1.203,12.965934714957507,863.5657697655097
1.204,12.970592447640758,863.7034807920467
1.205,12.975251757072101,863.8412041479772
1.206,12.979912643714004,863.9789398287367
1.207,12.984575108029016,864.1166878297548
1.208,12.989239150479799,864.2544481464595
1.209,12.99472620875549,864.4195425354943
1.21,12.999393687336287,864.5573301712416
1.211,13.004062745523182,864.6951301081976
1.212,13.00873338377917,864.8329423417717
1.213,13.013405602567309,864.9707668673711
1.214,13.018079402350729,865.108603680397
1.215,13.022754783592678,865.2464527762482
1.216,13.027431746756408,865.3843141503172
1.217,13.032110292305322,865.5221877979948
1.218,13.037614569036586,865.6874355502626
1.219,13.042296560022923,865.8253364282571
1.22,13.046980134867221,865.9632495652673
1.221,13.05166529403323,866.1011749566678
1.222,13.056352037984704,866.2391125978265
1.223,13.061040367185553,866.377062484109
1.224,13.065730282099747,866.5150246108767
1.225,13.07042178319133,866.6529989734875
1.226,13.075941442019463,866.8183831488197
1.227,13.080636396854743,866.9563846621012
1.228,13.085332939342342,867.0943983965293
1.229,13.090031069946608,867.2324243474438
1.23,13.09473078913203,867.3704625101822
1.231,13.099432097363152,867.5085128800765
1.232,13.104134995104618,867.6465754524559
1.233,13.108839482821153,867.7846502226455
1.234,13.113545560977505,867.9227371859641
1.235,13.119082528216396,868.0882740567741
1.236,13.123792069453142,868.2263880806711
1.237,13.128503202607021,868.3645142828847
1.238,13.133215928143175,868.5026526587192
1.239,13.137930246526833,868.6408032034745
1.24,13.142646158223235,868.7789659124451
1.241,13.147363663697789,868.9171407809233
1.242,13.152082763415944,869.0553278041966
1.243,13.157635193055404,869.2210004987477
1.244,13.162357764186266,869.3592145017309
1.245,13.167081931040146,869.4974406445921
1.246,13.171807694082856,869.635678922602
1.247,13.176535053780228,869.7739293310265
1.248,13.181264010598225,869.9121918651283
1.249,13.185994565002897,870.0504665201668
1.25,13.190726717460352,870.1887532913964
1.251,13.195460468436805,870.3270521740684
1.252,13.201030296750663,870.4928768849
1.253,13.205767528505644,870.6312026558127
1.254,13.210506360261366,870.7695405231304
1.255,13.215246792484376,870.907890482088
1.256,13.219988825641291,871.0462525279146
1.257,13.224732460198828,871.184626655837
1.258,13.229477696623704,871.3230128610743
1.259,13.234224535382799,871.4614111388456
1.26,13.23897297694305,871.5998214843638
1.261,13.244560251788057,871.7657978476016
1.262,13.249312183507985,871.9042349891588
1.263,13.25406571951321,872.0426841833084
1.264,13.258820860271022,872.1811454252489
1.265,13.263577606248722,872.31961871017
1.266,13.268335957913756,872.4581040332606
1.267,13.27309591573364,872.5966013897054
1.268,13.277857480175957,872.7351107746841
1.269,13.283460340721074,872.9012220255574
1.27,13.288225403694886,873.0397581238193
1.271,13.292992074777393,873.1783062353564
1.272,13.29776035443647,873.3168663553296
1.273,13.302530243140145,873.4554384788988
1.274,13.307301741356495,873.5940226012185
1.275,13.31207484955371,873.7326187174409
1.276,13.316849568199972,873.8712268227106
1.277,13.321625897763633,874.0098469121706
1.278,13.32724629557274,874.1761091185784
1.279,13.33202613307789,874.3147558277255
1.28,13.336807582989026,874.4534145056843
1.281,13.341590645774799,874.5920851475805
1.282,13.346375321903961,874.7307677485352
1.283,13.351161611845274,874.8694623036647
1.284,13.355949516067653,875.0081688080824
1.285,13.360739035040066,875.1468872568969
1.286,13.36553016923157,875.285617645214
1.287,13.371168152408679,875.4520304338752
1.288,13.375962803966857,875.5907873475421
1.289,13.380759072235067,875.7295561852131
1.29,13.385556957682638,875.868336941974
1.291,13.39035646077906,876.0071296129092
1.292,13.395157581993868,876.1459341930986
1.293,13.399960321796703,876.2847506776175
1.294,13.40476468065721,876.4235790615354
1.295,13.409570659045198,876.5624193399204
1.296,13.415226275779478,876.7289823342735
1.297,13.42003578097445,876.8678490429265
1.298,13.42484690719015,877.0067276304277
1.299,13.42965965489668,877.1456180918263
1.3,13.434474024564247,877.284520422169
1.301,13.439290016663064,877.4234346164953
1.302,13.44410763166351,877.5623606698437
1.303,13.448926870035988,877.701298577247
1.304,13.453747732251038,877.8402483337354
1.305,13.459421030816605,878.0069611539234
1.306,13.464245429294003,878.1459372448487
1.307,13.469071453109526,878.2849251691187
1.308,13.473899102733967,878.423924921744
1.309,13.478728378638253,878.5629364977328
1.31,13.483559281293362,878.7019598920882
1.311,13.488391811170388,878.8409950998101
1.312,13.493225968740418,878.980042115892
1.313,13.4980617544747,879.1191009353253
1.314,13.503752783230505,879.2859631981852
1.315,13.508592114697572,879.4250482554751
1.316,13.513433075826766,879.5641451002555
1.317,13.518275667089641,879.7032537275003
1.318,13.523119888957844,879.8423741321791
1.319,13.527965741903024,879.9815063092552
1.32,13.532813226396994,880.1206502536904
1.321,13.53766234291161,880.2598059604413
1.322,13.542513091918833,880.3989734244611
1.323,13.548221899308286,880.5659847435033
1.324,13.553076203533651,880.7051783480443
1.325,13.557932141751795,880.8443836938711
1.326,13.562789714434949,880.983600775918
1.327,13.567648922055467,881.1228295891162
1.328,13.572509765085778,881.262070128393
1.329,13.577372243998395,881.4013223886705
1.33,13.582236359265847,881.540586364866
1.331,13.587102111360814,881.6798620518944
1.332,13.592828745911781,881.8470220372966
1.333,13.597698062725195,881.986323766754
1.334,13.602569017868591,882.1256371909391
1.335,13.607441611814945,882.2649623047486
1.336,13.612315845037335,882.4042991030752
1.337,13.617191718008847,882.5436475808056
1.338,13.622069231202712,882.6830077328246
1.339,13.626948385092218,882.8223795540113
1.34,13.63182918015076,882.9617630392421
1.341,13.63757369047514,883.1290712978264
1.342,13.642458059767243,883.2684807266329
1.343,13.64734407173313,883.4079018032559
1.344,13.652231726846436,883.5473345225516
1.345,13.657121025580953,883.6867788793746
1.346,13.662011968410516,883.8262348685736
1.347,13.666904555809076,883.9657024849952
1.348,13.671798788250575,884.1051817234779
1.349,13.67669466620911,884.2446725788596
1.35,13.68245710100283,884.4121287140871
1.351,13.687356562724903,884.5516454134286
1.352,13.692257671471035,884.6911737133182
1.353,13.697160427715621,884.830713608575
1.354,13.702064831933157,884.9702650940139
1.355,13.706970884598144,885.1098281644441
1.356,13.711878586185236,885.2494028146727
1.357,13.716787937169125,885.3889890395012
1.358,13.72169893802462,885.5285868337278
1.359,13.727479346067216,885.6961904456766
1.36,13.732393940230928,885.8358139834803
1.361,13.737310185775481,885.9754490742067
1.362,13.742228083175995,886.1150957126358
1.363,13.747147632907648,886.2547538935436
1.364,13.752068835445694,886.3944236117019
1.365,13.756991691265485,886.5341048618777
1.366,13.761916200842373,886.6737976388328
1.367,13.766842364651867,886.8135019373265
1.368,13.77264079480645,886.9812526226838
1.369,13.777570561483524,887.1209825636013
1.37,13.782501983904737,887.2607240094582
1.371,13.787435062545889,887.4004769549956
1.372,13.792369797882886,887.5402413949508
1.373,13.797306190391629,887.6800173240545
1.374,13.802244240548168,887.819804737035
1.375,13.807183948828607,887.9596036286158
1.376,13.812125315709153,888.0994139935177
1.377,13.817068341666012,888.2392358264528
1.378,13.822886815020324,888.4071490611
1.379,13.827833454462786,888.5469964233602
1.38,13.832781754495608,888.6868552369177
1.381,13.837731715595366,888.8267254964702
1.382,13.8426833382387,888.9666071967101
1.383,13.847636622902371,889.1065003323268
1.384,13.852591570063122,889.2464048980028
1.385,13.857548180197856,889.386320888419
1.386,13.86250645378353,889.5262482982508
1.387,13.868343052572685,889.6943077444391
1.388,13.873304949234093,889.8342605808086
1.389,13.878268510862686,889.9742248197311
1.39,13.88323373793576,890.1142004558651
1.391,13.888200630930609,890.2541874838621
1.392,13.893169190324668,890.3941858983724
1.393,13.898139416595443,890.5341956940399
1.394,13.903111310220526,890.6742168655068
1.395,13.908084871677497,890.814249407406
1.396,13.913939645022646,890.9824546511786
1.397,13.918916839159984,891.1225125160483
1.398,13.923895702647716,891.262581734364
1.399,13.928876235963797,891.4026623007426
1.4,13.933858439586274,891.542754209799
1.401,13.93884231399327,891.6828574561423
1.402,13.943827859662917,891.8229720343761
1.403,13.948815077073506,891.9630979391018
1.404,13.953803966703367,892.1032351649152
1.405,13.958794529030905,892.2433837064085
1.406,13.96466951490664,892.4117500708047
1.407,13.969663720582519,892.551923819481
1.408,13.974659600477024,892.6921088667099
1.409,13.979657155068827,892.8323052070627
1.41,13.984656384836743,892.9725128351106
1.411,13.98965729025965,893.1127317454182
1.412,13.994659871816511,893.2529619325467
1.413,13.999664129986297,893.3932033910507
1.414,14.004670065248135,893.5334561154842
1.415,14.010563329544564,893.7019673930062
1.416,14.015572917789724,893.8422452194003
1.417,14.020584184650046,893.9825342944678
1.418,14.02559713060494,894.122834612742
1.419,14.0306117561339,894.2631461687533
1.42,14.035628061716443,894.4034689570258
