TimeMS,Acc,qDot
0.0,8.281048306174878,-0.3654077677251887
0.001,8.285655555359694,703.869812352687
0.002,8.289741254886987,704.0343642995168
0.003,8.29382891632822,704.1989479953937
0.004,8.29791854057277,704.3635634412841
0.005,8.302010128510315,704.5282106381483
0.006,8.306103681030942,704.6928895869434
0.007,8.310724545878188,704.8798794699801
0.008,8.314822282552347,705.0446262785479
0.009,8.318921986596308,705.2094048420727
0.01,8.323023658901555,705.3742151614911
0.011,8.327127300359955,705.5390572377366
0.012,8.33123291186372,705.7039310717375
0.013,8.33586743051881,705.891147808997
0.014,8.339977237829222,706.0560895166501
0.015,8.344089017978431,706.221062984995
0.016,8.34820277186011,706.3860682149418
0.017,8.352318500368266,706.5511052073952
0.018,8.356436204397275,706.7161739632558
0.019,8.361084415099567,706.9036176291916
0.02,8.365206326616535,707.0687542722172
0.021,8.369330216454538,707.2339226814978
0.022,8.373456085509371,707.3991228579135
0.023,8.37758393467722,707.5643548023411
0.024,8.381713764854565,707.7296185156508
0.025,8.385845576938287,707.8949139987095
0.026,8.390509762151433,708.0826216630062
0.027,8.394645795346175,708.2479850484691
0.028,8.398783813255351,708.4133802064258
0.029,8.40292381677725,708.5788071377227
0.03,8.407065806810555,708.7442658432025
0.031,8.41120978425431,708.9097563237037
0.032,8.415887744555198,709.0976910740459
0.033,8.420035954852567,709.2632494696725
0.034,8.424186155375162,709.4288396429738
0.035,8.428338347023466,709.5944615947681
0.036,8.432492530698337,709.7601153258705
0.037,8.436648707300918,709.9258008370878
0.038,8.441340481227092,710.1139627445734
0.039,8.445500902454265,710.2797161832668
0.04,8.44966331943075,710.4455014046397
0.041,8.45382773305919,710.6113184094818
0.042,8.45799414424256,710.7771671985766
0.043,8.462162553884214,710.9430477727046
0.044,8.466332962887858,711.1089601326403
0.045,8.471040853105132,711.2973862990433
0.046,8.475215520460834,711.4633666003311
0.047,8.47939219000798,711.629378689884
0.048,8.483570862651735,711.795422568458
0.049,8.487751539297621,711.9614982368031
0.05,8.491934220851517,712.127605695666
0.051,8.496656008381166,712.316259169252
0.052,8.5008429601196,712.4824345810082
0.053,8.505031919602294,712.6486417856477
0.054,8.50922288773657,712.8148807838962
0.055,8.51341586543013,712.9811515764751
0.056,8.517610853590977,713.1474541640994
0.057,8.522346577270165,713.3363350125467
0.058,8.526545847476592,713.5027055642312
0.059,8.530747130993388,713.6691079132356
0.06,8.534950428730067,713.8355420602572
0.061,8.539155741596458,714.0020080059861
0.062,8.543363070502782,714.1685057511088
0.063,8.547572416359623,714.3350352963082
0.064,8.552324399212239,714.5241806516339
0.065,8.556538040946997,714.6907781733815
0.066,8.56075370248323,714.8574074973711
0.067,8.564971384732985,715.0240686242644
0.068,8.569191088608656,715.1907615547185
0.069,8.573412815022962,715.3574862893842
0.07,8.578178818361982,715.5468591621459
0.071,8.58240485257704,715.7136518837036
0.072,8.586632912188563,715.8804764115466
0.073,8.59086299811077,716.0473327463072
0.074,8.595095111258198,716.2142208886108
0.075,8.59932925254578,716.3811408390801
0.076,8.604109315509472,716.5707412934732
0.077,8.608347776549287,716.7377292407944
0.078,8.61258826859392,716.9047489982606
0.079,8.616830792559728,717.0718005664727
0.08,8.621075349363476,717.2388839460274
0.081,8.62532193992227,717.4059991375168
0.082,8.629570565153584,717.5731461415284
0.083,8.634367031280584,717.7630113379361
0.084,8.63861999020182,717.9302263498756
0.085,8.64287498666816,718.097473176206
0.086,8.647132021598543,718.2647518174933
0.087,8.65139109591227,718.4320622742998
0.088,8.655652210528958,718.5994045471804
0.089,8.660462821270398,718.7894974601908
0.09,8.664728281590591,718.9569077501235
0.091,8.668995785093218,719.1243498579053
0.092,8.673265332699417,719.2918237840732
0.093,8.67753692533063,719.4593295291568
0.094,8.681810563908712,719.6268670936821
0.095,8.686086249355876,719.7944364781713
0.096,8.690913362370182,719.9847942864607
0.097,8.695193407530873,720.1524316980989
0.098,8.69947550244805,720.3201009313628
0.099,8.703759648045397,720.4878019867534
0.1,8.708045845246955,720.6555348647664
0.101,8.71233409497709,720.8232995658913
0.102,8.717175438043935,721.0138852204761
0.103,8.721468059563437,721.1817179570252
0.104,8.725762736505837,721.3495825182544
0.105,8.730059469797013,721.5174789046328
0.106,8.734358260363155,721.685407116624
0.107,8.738659109130866,721.853367154688
0.108,8.74296201702708,722.0213590192787
0.109,8.747819961998545,722.2122097162238
0.11,8.752127255766712,722.3802696253454
0.111,8.756436611565688,722.5483613624486
0.112,8.760748030323906,722.716484927967
0.113,8.765061512970147,722.8846403223288
0.114,8.76937706043356,723.0528275459583
0.115,8.774249321345417,723.2439062135444
0.116,8.778569266819066,723.4121614891219
0.117,8.782891280019085,723.580448595324
0.118,8.787215361876097,723.7487675325532
0.119,8.791541513321103,723.9171183012068
0.12,8.795869735285407,724.0855009016757
0.121,8.80020002870072,724.2539153343467
0.122,8.805088991672774,724.4452591851112
0.123,8.80942369725366,724.6137416778336
0.124,8.813760477202816,724.7822560040032
0.125,8.818099332453391,724.950802163985
0.126,8.822440263938951,725.1193801581396
0.127,8.826783272593417,725.2879899868232
0.128,8.831686637844948,725.4795619271629
0.129,8.836034070865939,725.648239822448
0.13,8.840383583979953,725.8169495534073
0.131,8.844735178122404,725.9856911203747
0.132,8.849088854229054,726.1544645236802
0.133,8.853444613235984,726.3232697636457
0.134,8.857802456079684,726.4921068405907
0.135,8.862722624072552,726.6839440985881
0.136,8.867084905511069,726.8528492492217
0.137,8.871449273718579,727.0217862378668
0.138,8.875815729633011,727.1907550648187
0.139,8.880184274192706,727.3597557303701
0.14,8.884554908336343,727.5287882348074
0.141,8.88948956540049,727.7208536958373
0.142,8.893864650402753,727.8899542796373
0.143,8.898241827928086,728.0590867032544
0.144,8.902621098916674,728.2282509669544
0.145,8.907002464309057,728.3974470709968
0.146,8.911385925046147,728.5666750156377
0.147,8.915771482069182,728.7359348011248
0.148,8.920723043082972,728.9282657078728
0.149,8.925113065266082,729.0975935787812
0.15,8.92950518668236,729.266953291352
0.151,8.93389940827457,729.436344845813
0.152,8.938295730985802,729.6057682423859
0.153,8.942694155759547,729.7752234812889
0.154,8.947660293090527,729.9677826989799
0.155,8.952063195351148,730.1373060280885
0.156,8.956468202628463,730.3068612002419
0.157,8.960875315867412,730.4764482156346
0.158,8.96528453601335,730.6460670744572
0.159,8.969695864011983,730.815717776895
0.16,8.974109300809339,730.9854003231268
0.161,8.979092443827158,731.178225108101
0.162,8.983510372486254,731.3479757495584
0.163,8.987930412906358,731.5177582354072
0.164,8.992352566035038,731.6875725658053
0.165,8.996776832820181,731.857418740904
0.166,9.00120321421009,732.027296760851
0.167,9.005631711153415,732.1972066257878
0.168,9.010631914782909,732.390297040656
0.169,9.015064918002397,732.5602750052749
0.17,9.01950003974565,732.7302848153614
0.171,9.02393728096283,732.9003264710358
0.172,9.028376642604453,733.0703999724124
0.173,9.032818125621398,733.2405053196003
0.174,9.037833040616748,733.4338242003344
0.175,9.042279042333872,733.6039976506011
0.176,9.046727168403667,733.7742029470552
0.177,9.051177419778494,733.9444400897825
0.178,9.055629797411118,734.1147090788656
0.179,9.060084302254609,734.2850099143789
0.18,9.064540935262443,734.4553425963932
0.181,9.069573013423128,734.6489272184413
0.182,9.074034179619275,734.8193280069328
0.183,9.07849747696527,734.9897606421822
0.184,9.082962906416046,735.1602251242364
0.185,9.08743046892696,735.3307214531391
0.186,9.091900165453724,735.5012496289279
0.187,9.096371996952373,735.6718096516341
0.188,9.101421293643275,735.8656600721012
0.189,9.105897672858072,736.0362882041072
0.19,9.110376190038394,736.2069481831661
0.191,9.114856846141825,736.3776400092883
0.192,9.11933964212627,736.5483636824764
0.193,9.123824578950046,736.7191192027299
0.194,9.128888723137745,736.9131982304608
0.195,9.133378220199377,737.0840218620003
0.196,9.137869861100995,737.2548773406367
0.197,9.142363646802371,737.425764666345
0.198,9.14685957826369,737.5966838390957
0.199,9.151357656445494,737.7676348588542
0.2,9.155857882308707,737.9386177255811
0.201,9.160939348400605,738.1329626528164
0.202,9.165444149103516,738.304013632574
0.203,9.169951100496613,738.4750964592073
0.204,9.17446020354232,738.6462111326545
0.205,9.178971459203424,738.8173576528469
0.206,9.183484868443042,738.9885360197086
0.207,9.1880004322247,739.1597462331612
0.208,9.193099276027782,739.354357111396
0.209,9.197619429290901,739.5256354390405
0.21,9.202141740113056,739.6969456130626
0.211,9.206666209459234,739.868287633358
0.212,9.211192838294844,740.0396614998198
0.213,9.215721627585658,740.2110672123345
0.214,9.220835456103822,740.4059068254542
0.215,9.225368847495881,740.5773806527097
0.216,9.229904402367124,740.7488863256972
0.217,9.234442121684847,740.9204238442803
0.218,9.238982006416695,741.091993208318
0.219,9.243524057530648,741.2635944176609
0.22,9.248068275995085,741.4352274721559
0.221,9.25319958642257,741.6303331268343
0.222,9.257748421704324,741.8020342961336
0.223,9.262299427368795,741.9737673101415
0.224,9.266852604385837,742.1455321686806
0.225,9.271407953725719,742.317328871569
0.226,9.275965476359069,742.4891574186194
0.227,9.280525173256885,742.6610178096387
0.228,9.2856740218448,742.8563895516564
0.229,9.29023835031604,743.0283180569476
0.23,9.294804856092155,743.2002784056375
0.231,9.299373540145657,743.3722705975104
0.232,9.30394440344943,743.5442946323437
0.233,9.308517446976689,743.716350509909
0.234,9.313092671701057,743.8884382299727
0.235,9.318259114856307,744.0840761030893
0.236,9.32283898595035,744.2562319362946
0.237,9.327421041290158,744.4284196113043
0.238,9.332005281850838,744.6006391278602
0.239,9.336591708607896,744.7728904856998
0.24,9.341180322537225,744.9451736845558
0.241,9.345771124615023,745.1174887241525
0.242,9.350955218900555,745.3133927700914
0.243,9.355550682184424,745.4857759210963
0.244,9.360148336673648,745.6581909120213
0.245,9.364748183346011,745.8306377425697
0.246,9.369350223179602,746.003116412436
0.247,9.373954457152935,746.1756269213128
0.248,9.379153771846116,746.3717598866392
0.249,9.383762679812886,746.5443385049712
0.25,9.388373784983377,746.716948961383
0.251,9.39298708833757,746.8895912555406
0.252,9.397602590855875,747.0622653871061
0.253,9.402220293519063,747.2349713557362
0.254,9.40684019730823,747.4077091610789
0.255,9.412057268738923,747.6041083714476
0.256,9.416681861432764,747.7769142833816
0.257,9.42130865832481,747.9497520309707
0.258,9.425937660397736,748.1226216138414
0.259,9.430568868634529,748.2955230316129
0.26,9.435202284018594,748.4684562839
0.261,9.4398379075337,748.6414213703121
0.262,9.445072792712391,748.8380868615534
0.263,9.44971312008375,749.0111200510804
0.264,9.454355658666604,749.1841850735436
0.265,9.459000409446261,749.3572819285289
0.266,9.463647373408385,749.5304106156154
0.267,9.468296551539018,749.7035711343763
0.268,9.472947944824531,749.8767634843782
0.269,9.478200700918665,750.0736952902363
0.27,9.482856813052353,750.2469557392583
0.271,9.487515143429684,750.4202480182045
0.272,9.49217569303861,750.593572126619
0.273,9.496838462867395,750.7669280640381
0.274,9.501503453904729,750.9403158299936
0.275,9.506170667139674,751.1137354240119
0.276,9.511441351473877,751.3109335761297
0.277,9.516113298589369,751.4844212644527
0.278,9.520787470999469,751.6579407793902
0.279,9.525463869694773,751.8314921204436
0.28,9.530142495666238,752.0050752871093
0.281,9.534823349905153,752.1786902788758
0.282,9.53950643340322,752.352337095227
0.283,9.544795103459615,752.5498016231384
0.284,9.549482935911085,752.7235165284544
0.285,9.55417300072706,752.8972632567779
0.286,9.558865298900718,753.0710418075665
0.287,9.563559831425675,753.244852180274
0.288,9.568256599295896,753.4186943743481
0.289,9.572955603505736,753.5925683892309
0.29,9.578262316924064,753.7902993203401
0.291,9.582966085200688,753.9642414182182
0.292,9.58767209293055,754.1382153351942
0.293,9.592380341109521,754.3122210706848
0.294,9.597090830733865,754.4862586241019
0.295,9.601803562800164,754.6603279948488
0.296,9.606518538305421,754.8344291823253
0.297,9.611843352883358,755.0324265418986
0.298,9.61656310760941,755.2065958057705
0.299,9.621285108896398,755.3807968845293
0.3,9.626009357742808,755.5550297775486
0.301,9.630735855147556,755.7292944841971
0.302,9.635464602109932,755.9035910038376
0.303,9.640195599629546,756.0779193358254
0.304,9.645538573322908,756.2761831469765
0.305,9.650274365257957,756.450579548122
0.306,9.655012410880547,756.6250077596392
0.307,9.659752711191869,756.7994677808591
0.308,9.664495267193452,756.9739596111069
0.309,9.669240079887246,757.1484832497023
0.31,9.673987150275549,757.3230386959586
0.311,9.679348341198523,757.5215689796341
0.312,9.684100221237621,757.6961924871715
0.313,9.688854362109824,757.8708478002584
0.314,9.693610764819008,758.0455349181835
0.315,9.698369430369377,758.2202538402292
0.316,9.703130359765547,758.3950045656724
0.317,9.70789355401245,758.5697870937815
0.318,9.71327302043785,758.7685838687489
0.319,9.718041039611617,758.9434344496174
0.32,9.722811326783098,759.1183168309068
0.321,9.727583882958818,759.2932310118625
0.322,9.732358709145627,759.4681769917223
0.323,9.737135806350794,759.6431547697194
0.324,9.74191517558197,759.8181643450813
0.325,9.747312975941412,760.0172276279123
0.326,9.75209718541635,760.1923052468638
0.327,9.75688367007258,760.3674146607965
0.328,9.761672430919306,760.5425558689129
0.329,9.766463468966089,760.7177288704082
0.33,9.771256785222818,760.8929336644703
0.331,9.776052380699808,761.068170250283
0.332,9.781468573584032,761.2675000553457
0.333,9.786269024662532,761.4428046749268
0.334,9.791071758125007,761.61814108374
0.335,9.795876774983263,761.7935092809417
0.336,9.800684076249542,761.9689092656838
0.337,9.805493662936437,762.1443410371111
0.338,9.81030553605693,762.319804594363
0.339,9.815740180215927,762.5194009338015
0.34,9.820556924336572,762.6949325143445
0.341,9.825375958062873,762.870495878055
0.342,9.83019728240935,763.0460910240466
0.343,9.835020898390914,763.2217179514267
0.344,9.839846807022797,763.3973766592953
0.345,9.844675009320666,763.5730671467471
0.346,9.85012816366395,763.7729300304719
0.347,9.8549612524016,763.9486885300789
0.348,9.859796637985706,764.1244788064747
0.349,9.864634321433428,764.3003008587275
0.35,9.869474303762365,764.4761546859
0.351,9.874316585990474,764.6520402870499
0.352,9.87916116913604,764.8279576612252
0.353,9.88463289273288,765.0280870968979
0.354,9.88948237779885,765.2040724714277
0.355,9.894334166971152,765.3800896160499
0.356,9.89918826126968,765.5561385297889
0.357,9.904044661714645,765.7322192116613
0.358,9.908903369326701,765.9083316606797
0.359,9.913764385126845,766.084475875849
0.36,9.919254737206467,766.2848718688684
0.361,9.92412067044871,766.4610840719246
0.362,9.928988915076285,766.6373280380568
0.363,9.933859472111774,766.8136037662455
0.364,9.938732342578104,766.9899112554625
0.365,9.94360752749861,767.1662505046756
0.366,9.948485027896938,767.3426215128437
0.367,9.953994067848766,767.5432840663323
0.368,9.958876501251957,767.7197230492467
0.369,9.96376125333867,767.8961937879013
0.37,9.968648325134172,768.0726962812311
0.371,9.973537717664035,768.2492305281618
0.372,9.97842943195429,768.4257965276161
0.373,9.983323469031317,768.6023942785087
0.374,9.988219829921837,768.7790237797473
0.375,9.993750251817135,768.9799902277048
0.376,9.998651563508506,769.156687687858
0.377,10.003555202228673,769.3334168949807
0.378,10.00846116900597,769.5101778479558
0.379,10.013369464869042,769.6869705456571
0.38,10.018280090846973,769.8637949869552
0.381,10.023193047969206,770.0406511707127
0.382,10.028742285385423,770.2418841780154
0.383,10.033660208959448,770.418808306097
0.384,10.038580466901484,770.5957641731177
0.385,10.043503060242552,770.7727517779143
0.386,10.048427990014025,770.9497711193167
0.387,10.053355257247684,771.1268221961491
0.388,10.058284862975627,771.303905007227
0.389,10.063852975806636,771.5054045697566
0.39,10.068787563678532,771.6825553098822
0.391,10.073724493276904,771.8597377805908
0.392,10.078663765635465,772.0369519806733
0.393,10.083605381788253,772.2141979089115
0.394,10.088549342769738,772.391475564084
0.395,10.093495649614772,772.5687849449616
0.396,10.099082697915524,772.7705510562648
0.397,10.104034002637997,772.9479283502267
0.398,10.10898765646461,773.1253373660845
0.399,10.113943660431778,773.3027781025835
0.4,10.11890201557629,773.4802505584614
0.401,10.123862722935264,773.6577547324479
0.402,10.128825783546244,773.8352906232674
0.403,10.133791198447156,774.0128582296386
0.404,10.139399911810255,774.2149282087454
0.405,10.144370342579466,774.3925637091276
0.406,10.149343130888855,774.5702309210866
0.407,10.154318277777916,774.747929843314
0.408,10.159295784286526,774.9256604744946
0.409,10.164275651454878,775.1034228133047
0.41,10.169257880323594,775.2812168584155
0.411,10.174885658232544,775.4835533644792
0.412,10.1798729187916,775.6614152861497
0.413,10.184862544309805,775.8393089100019
0.414,10.189854535829294,776.0172342346784
0.415,10.194848894392653,776.1951912588175
0.416,10.199845621042808,776.3731799810496
0.417,10.204844716823104,776.5512003999987
0.418,10.210491619840072,776.753803419139
0.419,10.215495763174195,776.9318916964949
0.42,10.220502278905657,777.1100116662997
0.421,10.225511168079366,777.2881633271512
0.422,10.230522431740605,777.4663466776396
0.423,10.235536070934977,777.6445617163475
0.424,10.240552086708528,777.8228084418514
0.425,10.245570480107672,778.0010868527221
0.426,10.251239265027959,778.2039936886316
0.427,10.256262724120196,778.3823399363241
0.428,10.261288564114922,778.5607178649464
0.429,10.266316786060138,778.7391274730415
0.43,10.271347391004204,778.9175687591463
0.431,10.276380379995828,779.0960417217882
0.432,10.28141575408414,779.2745463594898
0.433,10.28710379427634,779.4777196706128
0.434,10.292144250010102,779.6562921254681
0.435,10.297187094126004,779.8348962507997
0.436,10.30223232767469,780.0135320451006
0.437,10.307279951707248,780.1921995068597
0.438,10.31232996727513,780.370898634558
0.439,10.31738237543018,780.5496294266701
0.44,10.323089731965782,780.7530691915583
0.441,10.328147237760213,780.931867780441
0.442,10.33320713943574,781.1106980290026
0.443,10.33826943804576,781.28955993569
0.444,10.343334134644078,781.4684534989435
0.445,10.348401230284818,781.6473787171948
0.446,10.353470726022541,781.8263355888704
0.447,10.358542622912196,782.0053241123907
0.448,10.364272080015086,782.2090676158929
0.449,10.36934909283231,782.3881239120406
0.45,10.374428510105089,782.5672118551249
0.451,10.379510332889943,782.746331443539
0.452,10.384594562243768,782.9254826756668
0.453,10.389681199223794,783.1046655498853
0.454,10.394770244887686,783.2838800645661
0.455,10.400519149589988,783.487889967616
0.456,10.40561332726456,783.6671722329982
0.457,10.410709916935204,783.8464861337852
0.458,10.41580891966111,784.025831668319
0.459,10.420910336501892,784.2052088349352
0.46,10.426014168517543,784.3846176319635
0.461,10.431120416768442,784.5640580577257
0.462,10.436229082315304,784.7435301105365
0.463,10.44200023766492,784.9478436830937
0.464,10.4471140536124,785.1273834606912
0.465,10.452230290177784,785.3069548601054
0.466,10.457348948423425,785.4865578796246
0.467,10.462470029411989,785.6661925175263
0.468,10.467593534206593,785.8458587720852
0.469,10.472719463870723,786.0255566415677
0.47,10.47851019882249,786.2301365481286
0.471,10.4836412950597,786.4099021189088
0.472,10.488774819496879,786.5896992992259
0.473,10.493910773199092,786.7695280873176
0.474,10.499049157231799,786.9493884814157
0.475,10.504189972660775,787.1292804797421
0.476,10.509333220552248,787.3092040805143
0.477,10.514478901972797,787.4891592819417
0.478,10.52029203850427,787.6940427758992
0.479,10.525442904989841,787.8740656509173
0.48,10.530596208344697,788.0541201210283
0.481,10.535751949637024,788.234206184414
0.482,10.540910129935371,788.4143238392484
0.483,10.546070750308688,788.5944730836993
0.484,10.551233811826252,788.7746539159252
0.485,10.556399315557776,788.95486633408
0.486,10.562234934429664,789.160053366267
0.487,10.567405641772536,789.3403334293386
0.488,10.572578794679385,789.5206450726008
0.489,10.577754394221449,789.7009882941754
0.49,10.582932441470419,789.8813630921815
0.491,10.588112937498352,790.0617694647286
0.492,10.59329588337764,790.2422074099185
0.493,10.599151285635294,790.4476606532876
0.494,10.604339451435727,790.6281662174725
0.495,10.60953007044611,790.8087033484056
0.496,10.614723143740468,790.9892720441611
0.497,10.619918672393165,791.1698723028046
0.498,10.625116657479001,791.3505041223963
0.499,10.630317100073142,791.531167500989
0.5,10.635520001251157,791.7118624366288
0.501,10.64139803809227,791.9176191158592
0.502,10.646606177840063,792.0983816399928
0.503,10.651816779540066,792.2791757150975
0.504,10.65702984426941,792.4600013391896
0.505,10.662245373105632,792.6408585102788
0.506,10.667463367126599,792.821747226366
0.507,10.672683827410616,793.0026674854465
0.508,10.67790675503638,793.1836192855089
0.509,10.683807507921243,793.3896793405356
0.51,10.689035692820047,793.5706986976086
0.511,10.694266348438703,793.751749589406
0.512,10.699499475857488,793.9328320138868
0.513,10.704735076157062,794.1139459690031
0.514,10.709973150418419,794.2950914526969
0.515,10.715213699722984,794.4762684629054
0.516,10.721134441542965,794.6825945788129
0.517,10.726380264568126,794.8638391176305
0.518,10.731628566023264,795.0451151765482
0.519,10.736879346991339,795.2264227534716
0.52,10.742132608555755,795.4077618463017
0.521,10.747388351800279,795.5891324529307
0.522,10.75264657780909,795.7705345712446
0.523,10.757907287666692,795.951968199121
0.524,10.763850899089118,796.158597567802
0.525,10.769116901473177,796.3400986909409
0.526,10.774385391102598,796.5216313170438
0.527,10.779656369063536,796.70319544396
0.528,10.784929836442458,796.8847910695292
0.529,10.790205794326289,797.0664181915861
0.53,10.795484243802333,797.2480768079577
0.531,10.800765185958218,797.4297669164621
0.532,10.80673174914557,797.6366994667399
0.533,10.81201800268854,797.818457036159
0.534,10.817306752317746,798.000246090929
0.535,10.822597999122479,798.1820666288396
0.536,10.82789174419234,798.3639186476717
0.537,10.833187988617382,798.5458021451999
0.538,10.838486733488043,798.7277171191931
0.539,10.843787979895092,798.9096635674098
0.54,10.849777577254505,799.1168992241952
0.541,10.855084153964064,799.2989130979707
0.542,10.860393235626233,799.4809584390018
0.543,10.865704823333429,799.6630352450196
0.544,10.871018918178397,799.8451435137447
0.545,10.876335521254324,800.0272832428936
0.546,10.881654633654769,800.2094544301735
0.547,10.88766449974913,800.4169559008477
0.548,10.892988959085924,800.599194481868
0.549,10.898315931172053,800.7814645138874
0.55,10.903645417102679,800.9637659945831
0.551,10.908977417973336,801.1460989216262
0.552,10.914311934879965,801.3284632926789
0.553,10.919648968918834,801.5108591053953
0.554,10.92498852118665,801.6932863574241
0.555,10.931021576792213,801.9010907831102
0.556,10.93636649501481,802.0835853916124
0.557,10.941713934901054,802.2661114321081
0.558,10.947063897549208,802.4486689022134
0.559,10.95241638405796,802.6312577995386
0.56,10.957771395526388,802.8138781216868
0.561,10.9631289330539,802.996529866251
0.562,10.968488997740348,803.1792130308194
0.563,10.974545325969778,803.3873203250246
0.564,10.979910775684399,803.5700708077724
0.565,10.985278756002517,803.7528527030171
0.566,10.990649268025523,803.9356660083139
0.567,10.996022312855251,804.1185107212125
0.568,11.00139789159391,804.3013868392545
0.569,11.006776005344104,804.4842943599749
0.57,11.012156655208774,804.6672332808984
0.571,11.018236339420538,804.8756433531146
0.572,11.023622393441784,805.05864955289
0.573,11.02901098703193,805.2416871451709
0.574,11.034402121295567,805.4247561274545
0.575,11.039795797337622,805.6078564972266
0.576,11.045192016263462,805.7909882519693
0.577,11.05059077917884,805.974151389155
0.578,11.055992087189841,806.1573459062491
0.579,11.062095210988481,806.3660586619266
0.58,11.067501942339515,806.5493204175034
0.581,11.072911222250474,806.7326135450994
0.582,11.078323051829093,806.9159380421494
0.583,11.083737432183442,807.0992939060786
0.584,11.08915436442204,807.2826811343068
0.585,11.094573849653772,807.4660997242456
0.586,11.099995888987928,807.6495496732994
0.587,11.106122536224335,807.8585650138194
0.588,11.11155001813707,808.0420821599392
0.589,11.116980057626362,808.2256306570915
0.59,11.122412655803085,808.409210502649
0.591,11.127847813778523,808.5928216939766
0.592,11.133285532664278,808.7764642284302
0.593,11.13872581357241,808.9601381033606
0.594,11.144168657615362,809.1438433161102
0.595,11.150318912387046,809.3531611387579
0.596,11.155767218302303,809.5369335061038
0.597,11.161218090836378,809.7207372029918
0.598,11.166671531103319,809.904572226733
0.599,11.172127540217554,810.0884385746302
0.6,11.177586119293847,810.2723362439774
0.601,11.183047269447412,810.4562652320628
0.602,11.188510991793814,810.6402255361655
0.603,11.194684938445254,810.8498457341062
0.604,11.200154142012895,811.0338731492753
0.605,11.205625921267291,811.2179318719903
0.606,11.211100277325647,811.4020218995001
0.607,11.216577211305529,811.5861432290442
0.608,11.222056724324906,811.770295857856
0.609,11.22753881750209,811.9544797831586
0.61,11.233023491955834,812.1386950021699
0.611,11.239221215078615,812.3486174644162
0.612,11.244711390157716,812.5328997498938
0.613,11.250204150017236,812.7172133204133
0.614,11.255699495777465,812.9015581731582
0.615,11.261197428559145,813.0859343053068
0.616,11.26669794948341,813.2703417140281
0.617,11.272201059671733,813.4547803964832
0.618,11.27770676024601,813.639250349826
0.619,11.283928344679174,813.8494749612149
0.62,11.289439565338247,814.0340119353508
0.621,11.294953379897045,814.2185801715104
0.622,11.300469789479028,814.4031796668145
0.623,11.305988795208089,814.5878104183766
0.624,11.311510398208526,814.7724724233037
0.625,11.317034599604959,814.9571656786925
0.626,11.322561400522462,815.141890181634
0.627,11.32809080208647,815.3266459292104
0.628,11.334339284406393,815.5372096528417
0.629,11.33987422797419,815.7220323686048
0.63,11.345411775713394,815.9068863199155
0.631,11.350951928751009,816.0917715038225
0.632,11.356494688214491,816.2766879173683
0.633,11.362040055231684,816.4616355575882
0.634,11.367588030930754,816.6466144215065
0.635,11.373138616440333,816.8316245061425
0.636,11.379411141005798,817.0424901203438
0.637,11.384967288096105,817.2275671251887
0.638,11.390526048531731,817.4126753414637
0.639,11.396087423442859,817.5978147661536
0.64,11.4016514139601,817.7829853962369
0.641,11.407218021214454,817.9681872286835
0.642,11.41278724633727,818.1534202604546
0.643,11.418359090460326,818.3386844885043
0.644,11.424655742884756,818.5498518648908
0.645,11.430233168220887,818.7351829640749
0.646,11.435813216102014,818.9205452500491
0.647,11.441395887661466,819.1059387197332
0.648,11.446981184033033,819.2913633700409
0.649,11.452569106350861,819.4768191978775
0.65,11.458159655749514,819.6623062001406
0.651,11.463752833363884,819.8478243737179
0.652,11.470073699509173,820.0592933796137
0.653,11.475672478024425,820.2448783741479
0.654,11.481273888310083,820.4304945303054
0.655,11.486877931502706,820.6161418449426
0.656,11.492484608739186,820.8018203149059
0.657,11.498093921156862,820.9875299370366
0.658,11.503705869893468,821.1732707081671
0.659,11.509320456087057,821.3590426251197
0.66,11.51493768087614,821.5448456847115
0.661,11.521285841858914,821.756653196427
0.662,11.526908689724497,821.9425230192771
0.663,11.532534179751433,822.1284239748454
0.664,11.538162313079775,822.3143560599133
0.665,11.543793090850034,822.5003192712555
0.666,11.549426514203084,822.6863136056393
0.667,11.555062584280224,822.8723390598229
0.668,11.560701302223071,823.058395630556
0.669,11.567073860036631,823.2705044756474
0.67,11.572718220861624,823.4566277570959
0.671,11.578365233128126,823.6427821449673
0.672,11.584014897979424,823.828967635979
0.673,11.589667216559139,824.0151842268382
0.674,11.595322190011336,824.201431914246
0.675,11.600979819480484,824.3877106948956
0.676,11.606640106111366,824.5740205654695
0.677,11.612303051049228,824.7603615226448
0.678,11.61870310994875,824.9728085289838
0.679,11.624371720076802,825.1592161365014
0.68,11.630042992098815,825.345654820262
0.681,11.635716927161578,825.5321245769064
0.682,11.641393526412338,825.7186254030693
0.683,11.647072790998699,825.9051572953761
0.684,11.652754722068696,826.0917202504457
0.685,11.658439320770677,826.278314264886
0.686,11.664863960734056,826.4910622887334
0.687,11.67055424454988,826.677722898576
0.688,11.67624719959463,826.8644145572229
0.689,11.681942827018329,827.05113726125
0.69,11.687641127971338,827.2378910072235
0.691,11.69334210360446,827.4246757917028
0.692,11.699045755068907,827.61149161124
0.693,11.704752083516192,827.7983384623758
0.694,11.7104610900983,827.9852163416448
0.695,11.716913438658244,828.1983021598421
0.696,11.722628152794826,828.3852465714297
0.697,11.728345548674362,828.5722220003491
0.698,11.73406562745038,828.759228443099
0.699,11.739788390276876,828.9462658961714
0.7,11.745513838308188,829.1333343560499
0.701,11.751241972699097,829.3204338192104
0.702,11.756972794604692,829.507564282118
0.703,11.76344990958684,829.7209507819493
0.704,11.76918645908871,829.9081477198064
0.705,11.774925699723365,830.0953756463983
0.706,11.780667632647576,830.2826345581575
0.707,11.786412259018443,830.4699244515072
0.708,11.79215957999352,830.6572453228636
0.709,11.797909596730749,830.8445971686348
0.71,11.803662310388408,831.0319799852181
0.711,11.809417722125215,831.2193937690051
0.712,11.815922754478995,831.4331176736581
0.713,11.821683916385446,831.6205978665639
0.714,11.827447780000357,831.8081090154224
0.715,11.833214346483995,831.9956511165877
0.716,11.838983616997098,832.1832241664081
0.717,11.844755592700784,832.3708281612236
0.718,11.85053027475651,832.5584630973633
0.719,11.856307664326177,832.7461289711496
0.72,11.862087762572065,832.9338257788975
0.721,11.868620823245061,833.1478868730068
0.722,11.874406694304263,833.3356500225761
0.723,11.88019527768015,833.5234440946143
0.724,11.885986574536632,833.7112690854001
0.725,11.891780586037994,833.8991249912046
0.726,11.897577313348924,834.0870118082901
0.727,11.90337675763445,834.2749295329082
0.728,11.909178920060045,834.4628781613055
0.729,11.915737032742536,834.6772393841513
0.73,11.921544988204138,834.8652542932234
0.731,11.9273556654563,835.0533000943678
0.732,11.933169065666053,835.2413767837928
0.733,11.938985190000885,835.4294843577011
0.734,11.944804039628668,835.6176228122855
0.735,11.95062561571761,835.8057921437298
0.736,11.956449919436372,835.9939923482099
0.737,11.962276951953976,836.1822234218932
0.738,11.968863303668323,836.3969214094667
0.739,11.97469615199856,836.585218693725
0.74,11.980531732789306,836.7735468352354
0.741,11.986370047211226,836.9619058301301
0.742,11.992211096435362,837.1502956745333
0.743,11.998054881633166,837.3387163645601
0.744,12.003901403976409,837.527167896315
0.745,12.009750664637329,837.7156502658966
0.746,12.015602664788553,837.9041634693943
0.747,12.022217367508482,838.1191979875151
0.748,12.028075206319306,838.3077773299893
0.749,12.033935788293288,838.4963874941824
0.75,12.039799114604675,838.6850284761488
0.751,12.045665186428101,838.8737002719341
0.752,12.051534004938524,839.0624028775726
0.753,12.057405571311374,839.2511362890934
0.754,12.063279886722425,839.4399005025143
0.755,12.06915695234788,839.6286955138465
0.756,12.075800118402775,839.8440663217378
0.757,12.081683045605212,840.0329273989398
0.758,12.087568726706161,840.2218192616103
0.759,12.093457162883421,840.4107419057232
0.76,12.099348355315195,840.5996953272451
0.761,12.105242305180035,840.7886795221316
0.762,12.11113901365692,840.9776944863314
0.763,12.117038481925249,841.1667402157852
0.764,12.122940711164725,841.3558167064218
0.765,12.129612453239766,841.5715235566577
0.766,12.135520567044086,841.7606660385402
0.767,12.141431445514934,841.9498392689159
0.768,12.147345089833705,842.1390432436804
0.769,12.153261501182122,842.3282779587174
0.77,12.159180680742361,842.5175434099052
0.771,12.165102629696978,842.7068395931127
0.772,12.171027349228934,842.8961665041994
0.773,12.176954840521516,843.0855241390152
0.774,12.18365527165805,843.301566777478
0.775,12.18958867057379,843.4909903273866
0.776,12.195524844956765,843.680444588084
0.777,12.201463795991947,843.8699295553855
0.778,12.207405524864646,844.0594452250959
0.779,12.213350032760605,844.2489915930124
0.78,12.219297320865985,844.4385686549235
0.781,12.225247390367263,844.6281764066074
0.782,12.231200242451369,844.8178148438348
0.783,12.237929476047135,845.034193009666
0.784,12.243888258883207,845.2238972842936
0.785,12.249849828019936,845.4136322312729
0.786,12.255814184645825,845.6033978463366
0.787,12.261781329949814,845.7931941252099
0.788,12.267751265121241,845.9830210636104
0.789,12.273723991349772,846.1728786572434
0.79,12.27969950982552,846.3627669018072
0.791,12.285677821738982,846.5526857929917
0.792,12.29243597154838,846.7693992185443
0.793,12.298420237413152,846.9593838678868
0.794,12.304407300444666,847.149399150403
0.795,12.310397161835057,847.3394450617466
0.796,12.31638982277683,847.5295215975613
0.797,12.322385284462896,847.7196287534816
0.798,12.328383548086503,847.9097665251326
0.799,12.334384614841346,848.099934908131
0.8,12.340388485921522,848.2901338980857
0.801,12.347175666055808,848.5071823088767
0.802,12.353185514357133,848.6974469761847
0.803,12.359198170724035,848.8877422367462
0.804,12.365213636352228,849.0780680861332
0.805,12.37123191243782,849.2684245199075
0.806,12.377253000177241,849.4588115336206
0.807,12.38327690076737,849.6492291228166
0.808,12.389303615405483,849.8396772830306
0.809,12.39533314528924,850.0301560097886
0.81,12.402149470216868,850.247539124453
0.811,12.408185000662169,850.4380834461884
0.812,12.414223350104626,850.6286583205091
0.813,12.420264519743505,850.8192637429029
0.814,12.4263085107785,851.0098997088503
0.815,12.432355324409613,851.2005662138201
0.816,12.438404961837321,851.3912632532737
0.817,12.444457424262477,851.5819908226639
0.818,12.450512712886281,851.7727489174329
0.819,12.457358297432975,851.9904664476715
0.82,12.46341961002933,852.1812900534608
0.821,12.46948375258712,852.3721441704118
0.822,12.47555072630922,852.5630287939312
0.823,12.481620532398818,852.7539439194134
0.824,12.48769317205958,852.9448895422462
0.825,12.493768646495539,853.1358656578085
0.826,12.49984695691113,853.3268722614687
0.827,12.505928104511117,853.5179093485852
0.828,12.512012090500733,853.7089769145098
0.829,12.518890274236606,853.9270650794319
0.83,12.524980310256469,854.1181980613342
0.831,12.531073188441226,854.3093615075389
0.832,12.53716890999766,854.5005554133576
0.833,12.543267476133,854.6917797740938
0.834,12.549368888054886,854.8830345850432
0.835,12.555473146971268,855.0743198414892
0.836,12.561580254090563,855.2656355387085
0.837,12.567690210621558,855.4569816719676
0.838,12.574597897377293,855.6754036212152
0.839,12.580713927498467,855.8668150831219
0.84,12.586832810817805,856.0582569662997
0.841,12.592954548545723,856.2497292659767
0.842,12.599079141893032,856.441231977373
0.843,12.60520659207094,856.6327650956996
0.844,12.61133690029098,856.8243286161555
0.845,12.617470067765147,857.0159225339327
0.846,12.623606095705835,857.2075468442148
0.847,12.629744985325756,857.3992015421732
0.848,12.636685542195874,857.6179934072169
0.849,12.642830531628874,857.809713335009
0.85,12.648978386540087,858.0014636354159
0.851,12.655129108143907,858.1932443035731
0.852,12.661282697655068,858.3850553346043
0.853,12.66743915628875,858.5768967236265
0.854,12.673598485260529,858.7687684657463
0.855,12.67976068578631,858.96067055606
0.856,12.685925759082448,859.1526029896561
0.857,12.6928960639661,859.371727976254
0.858,12.699067260784181,859.5637255489314
0.859,12.705241334182844,859.7557534495635
0.86,12.711418285380004,859.9478116731987
0.861,12.717598115594027,860.1399002148773
0.862,12.723780826043667,860.3320190696301
0.863,12.729966417948068,860.5241682324782
0.864,12.736154892526722,860.7163476984324
0.865,12.742346250999564,860.9085574624955
0.866,12.748540494586926,861.1007975196609
0.867,12.755543942277914,861.3202916679226
0.868,12.761744335775406,861.5125967615323
0.869,12.767947618210048,861.7049321326176
0.87,12.77415379080379,861.897297776133
0.871,12.780362854778982,862.089693687024
0.872,12.786574811358289,862.2821198602238
0.873,12.792789661764836,862.4745762906584
0.874,12.799007407222126,862.6670629732445
0.875,12.80522804895407,862.8595799028889
0.876,12.812261491246769,863.0794064779485
0.877,12.81848830674665,863.2719883498129
0.878,12.824718022355073,863.4646004528392
0.879,12.830950639297551,863.6572427818954
0.88,12.837186158800009,863.84991533184
0.881,12.843424582088684,864.0426180975193
0.882,12.849665910390293,864.2353510737736
0.883,12.855910144931931,864.4281142554319
0.884,12.862157286941029,864.6209076373136
0.885,12.868407337645461,864.8137312142288
0.886,12.87547419720791,865.033926161063
0.887,12.881730448233753,865.2268145736829
0.888,12.887989611801343,865.4197331651407
0.889,12.89425168914011,865.6126819302052
0.89,12.900516681479946,865.8056608636381
0.891,12.906784590051114,865.9986699601909
0.892,12.913055416084298,866.1917092146065
0.893,12.919329160810488,866.384778621615
0.894,12.925605825461153,866.5778781759409
0.895,12.931885411268148,866.7710078722971
0.896,12.938985833166907,866.9915707608619
0.897,12.945271645935682,867.1847651843453
0.898,12.951560383719585,867.3779897333568
0.899,12.957852047752091,867.5712444025706
0.9,12.96414663926706,867.764529186651
0.901,12.97044415949868,867.9578440802502
0.902,12.9767446096816,868.151189078014
0.903,12.983047991050835,868.3445641745765
0.904,12.989354304841811,868.5379693645629
0.905,12.995663552290289,868.7314046425879
0.906,13.002797682082011,868.9523350327299
0.907,13.00911318321954,869.1458349272262
0.908,13.015431621885899,869.3393648929548
0.909,13.021752999318528,869.5329249244905
0.91,13.028077316755189,869.726515016398
0.911,13.034404575434106,869.9201351632335
0.912,13.040734776593899,870.113785359544
0.913,13.047067921473497,870.3074655998641
0.914,13.05340401131231,870.5011758787211
0.915,13.059743047350114,870.6949161906323
0.916,13.066911031081558,870.9162136320055
0.917,13.073256347622578,871.1100184476398
0.918,13.079604614246318,871.3038532792112
0.919,13.085955832194182,871.4977181211971
0.92,13.092310002707972,871.6916129680646
0.921,13.098667127029806,871.8855378142687
0.922,13.105027206402271,872.0794926542576
0.923,13.111390242068305,872.2734774824679
0.924,13.117756235271289,872.4674922933277
0.925,13.124125187254894,872.6615370812533
0.926,13.131327171463237,872.8832011132494
0.927,13.137702430851089,873.0773102900414
0.928,13.144080652915818,873.2714494264739
0.929,13.150461838902789,873.4656185169237
0.93,13.156845990057699,873.6598175557563
0.931,13.163233107626702,873.8540465373302
0.932,13.169623192856353,874.0483054559929
0.933,13.176016246993505,874.24259430608
0.934,13.182412271285495,874.4369130819198
0.935,13.188811266980018,874.6312617778295
0.936,13.196047398692805,874.8532919294944
0.937,13.202452728779482,875.047704897291
0.938,13.208861034177337,875.2421477674177
0.939,13.215272316135712,875.436620534152
0.94,13.221686575904306,875.6311231917601
0.941,13.228103814733243,875.8256557345001
0.942,13.234524033872951,876.0202181566164
0.943,13.240947234574337,876.2148104523463
0.944,13.247373418088701,876.4094326159185
0.945,13.25380258566764,876.6040846415467
0.946,13.261073012402994,876.8264804315062
0.947,13.267508541448773,877.0211966099007
0.948,13.273947058480262,877.2159426322982
0.949,13.280388564750771,877.4107184928747
0.95,13.286833061513919,877.6055241857952
0.951,13.293280550023779,877.8003597052148
0.952,13.299731031534801,877.9952250452797
0.953,13.306184507301841,878.1901202001253
0.954,13.31264097858008,878.3850451638762
0.955,13.319100446625164,878.579999930648
0.956,13.325562912693131,878.7749844945469
0.957,13.332871190467129,878.9977813861741
0.958,13.33934004784923,879.1928299694505
0.959,13.345811907188935,879.3879083314486
0.96,13.352286769743902,879.5830164662335
0.961,13.35876463677216,879.7781543678591
0.962,13.365245509532071,879.9733220303677
0.963,13.371729389282455,880.1685194477936
0.964,13.378216277282498,880.3637466141595
0.965,13.384706174791797,880.5590035234794
0.966,13.391199083070273,880.7542901697553
0.967,13.39854196706002,880.977451655048
0.968,13.405041293909438,881.1728021970391
0.969,13.411543635475272,881.3681824572636
0.97,13.418048993019124,881.5635924296826
0.971,13.424557367802903,881.7590321082458
0.972,13.431068761089008,881.9545014868952
0.973,13.437583174140212,882.1500005595615
0.974,13.444100608219602,882.3455293201637
0.975,13.450621064590742,882.5410877626132
0.976,13.457144544517572,882.7366758808105
0.977,13.463671049264356,882.9322936686438
0.978,13.471052127371212,883.1558550809907
0.979,13.477585080736217,883.3515366261227
0.98,13.484121062882053,883.5472478218135
0.981,13.490660075074679,883.7429886619119
0.982,13.49720211858035,883.9387591402533
0.983,13.503747194665799,884.1345592506657
0.984,13.510295304598126,884.330388986966
0.985,13.51684644964483,884.5262483429616
0.986,13.523400631073745,884.7221373124477
0.987,13.529957850153147,884.9180558892095
0.988,13.53737384783017,885.1419808036192
0.989,13.543937542966537,885.337963009407
0.99,13.550504279726688,885.5339748030696
0.991,13.557074059380454,885.730016178349
0.992,13.563646883198127,885.9260871289794
0.993,13.570222752450379,886.1221876486836
0.994,13.57680166840821,886.3183177311731
0.995,13.583383632343072,886.5144773701508
0.996,13.589968645526797,886.7106665593086
0.997,13.596556709231617,886.9068852923283
0.998,13.603147824730076,887.1031335628794
0.999,13.610602361976746,887.3274571777033
1.0,13.617199983779198,887.523768933758
1.001,13.62380066136222,887.7201102075825
1.002,13.630404396000046,887.9164809928061
1.003,13.637011188967232,888.112881283045
1.004,13.643621041538793,888.3093110719074
1.005,13.650233954990128,888.5057703529911
1.006,13.656849930596962,888.7022591198811
1.007,13.663468969635478,888.8987773661545
1.008,13.670091073382219,889.0953250853762
1.009,13.676716243114148,889.2919022711033
1.01,13.684209501727262,889.5166239230849
1.011,13.69084120811466,889.7132644480884
1.012,13.697475984487731,889.9099344194713
1.013,13.704113832125024,890.106633830745
1.014,13.710754752305498,890.3033626754124
1.015,13.717398746308426,890.5001209469633
1.016,13.724045815413549,890.6969086388789
1.017,13.730695960900983,890.8937257446295
1.018,13.737349184051169,891.0905722576732
1.019,13.744005486145012,891.2874481714605
1.02,13.750664868463785,891.4843534794295
1.021,13.758197030890639,891.7094724907136
1.022,13.764862980320821,891.9064409890096
1.023,13.771532013990017,892.1034388609961
1.024,13.778204133181129,892.3004661000691
1.025,13.784879339177422,892.4975226996129
1.026,13.791557633262567,892.6946086530027
1.027,13.798239016720549,892.8917239535995
1.028,13.804923490835824,893.088868594757
1.029,13.811611056893232,893.2860425698178
1.03,13.818301716177931,893.4832458721122
1.031,13.824995469975534,893.6804784949616
1.032,13.832566719313792,893.9059941729763
1.033,13.839267070782988,894.1032898344539
1.034,13.845970520792823,894.3006147956291
1.035,13.852677070630449,894.4979690497772
1.036,13.859386721583462,894.6953525901652
1.037,13.866099474939876,894.8927654100495
1.038,13.872815331987992,895.0902075026737
1.039,13.87953429401659,895.2876788612733
1.04,13.886256362314803,895.4851794790711
1.041,13.892981538172185,895.6827093492819
1.042,13.899709822878599,895.8802684651056
1.043,13.907320342876142,896.1061801024459
1.044,13.914055255918575,896.3038021024316
1.045,13.92079328185135,896.5014533268018
1.046,13.927534421966003,896.6991337687153
1.047,13.93427867755439,896.8968434213175
1.048,13.941026049908832,897.0945822777463
1.049,13.947776540322025,897.2923503311284
1.05,13.95453015008699,897.4901475745773
1.051,13.96128688049721,897.6879740011979
1.052,13.968046732846526,897.8858296040843
1.053,13.97480970842919,898.0837143763198
1.054,13.98245968348392,898.310021250627
1.055,13.98922931817112,898.5079687497666
1.056,13.996002080146486,898.7059453966509
1.057,14.002777970705846,898.9039511843184
1.058,14.009556991145448,899.1019861057969
1.059,14.016339142761844,899.3000501541013
1.06,14.023124426852048,899.4981433222389
1.061,14.029912844713467,899.6962656032048
1.062,14.036704397643819,899.8944169899821
1.063,14.043499086941276,900.0925974755444
1.064,14.050296913904381,900.2908070528547
1.065,14.057097879832087,900.4890457148649
1.066,14.064791065391585,900.7157824332066
1.067,14.071598724075013,900.9140836475099
1.068,14.07840952579262,901.1124139244978
1.069,14.085223471844929,901.3107732570766
1.07,14.092040563532874,901.5091616381429
1.071,14.098860802157711,901.7075790605804
1.072,14.105684189021142,901.9060255172633
1.073,14.112510725425269,902.1045010010554
1.074,14.1193404126725,902.3030055048071
1.075,14.126173252065703,902.5015390213605
1.076,14.13300924490811,902.7001015435459
1.077,14.140742272984289,902.9272319402938
1.078,14.147584989568257,903.1258568516159
1.079,14.154430863684533,903.3245107461743
1.08,14.161279896637959,903.5231936167536
1.081,14.168132089733758,903.7219054561289
1.082,14.17498744427755,903.9206462570634
1.083,14.181845961575275,904.1194160123073
1.084,14.188707642933332,904.3182147146027
1.085,14.195572489658492,904.5170423566801
1.086,14.20244050305786,904.715898931256
1.087,14.209311684438985,904.9147844310394
1.088,14.216186035109805,905.1136988487283
1.089,14.22396269748244,905.3412573533664
1.09,14.230843805782445,905.5402339790953
1.091,14.237728087469948,905.7392394999156
1.092,14.244615543854474,905.9382739084785
1.093,14.251506176245949,906.1373371974254
1.094,14.258399985954599,906.3364293593835
1.095,14.26529697429111,906.5355503869707
1.096,14.272197142566542,906.7347002727946
1.097,14.279100492092358,906.9338790094515
1.098,14.286007024180316,907.1330865895236
1.099,14.292916740142653,907.3323230055854
1.1,14.299829641291996,907.5315882502002
1.101,14.307650160190994,907.7595739281572
1.102,14.314569852980238,907.9589011962931
1.103,14.321492735068967,908.1582572697464
1.104,14.328418807771385,908.3576421410339
1.105,14.335348072402093,908.5570558026619
1.106,14.342280530275994,908.7564982471227
1.107,14.349216182708444,908.9559694668995
1.108,14.35615503101517,909.1554694544636
1.109,14.3630970765123,909.3549982022764
1.11,14.370042320516278,909.554555702785
1.111,14.376990764344004,909.7541419484284
1.112,14.383942409312757,909.9537569316332
1.113,14.391807007807033,910.1821688281578
1.114,14.39876547854931,910.3818456469122
1.115,14.405727154559777,910.5815511795685
1.116,14.412692037157308,910.7812854185079
1.117,14.41966012766116,910.9810483560996
1.118,14.426631427390904,911.1808399846996
1.119,14.433605937666565,911.3806602966556
1.12,14.440583659808523,911.5805092843023
1.121,14.447564595137576,911.7803869399644
1.122,14.454548744974824,911.9802932559528
1.123,14.461536110641829,912.1802282245692
1.124,14.468526693460534,912.3801918381042
1.125,14.476435595457422,912.6090289780965
1.126,14.48343303830597,912.8090542357277
1.127,14.49043370244803,913.0091081141894
1.128,14.497437589207124,913.2091906057253
1.129,14.504444699907172,913.4093017025685
1.13,14.511455035872396,913.6094413969367
1.131,14.518468598427473,913.8096096810402
1.132,14.525485388897467,914.0098065470772
1.133,14.532505408607758,914.2100319872326
1.134,14.53952865888416,914.4102859936811
1.135,14.546555141052878,914.6105685585868
1.136,14.553584856440501,914.8108796741018
1.137,14.56153828668504,915.0401410619351
1.138,14.568574896481344,915.2405136265824
1.139,14.575614743652972,915.4409147173196
1.14,14.582657829528106,915.6413443262518
1.141,14.589704155435314,915.8418024454735
1.142,14.596753722703447,916.0422890670641
1.143,14.603806532661853,916.2428041830954
1.144,14.610862586640224,916.4433477856269
1.145,14.617921885968597,916.6439198667048
1.146,14.624984431977426,916.8445204183653
1.147,14.63205022599754,917.0451494326326
1.148,14.639119269360192,917.2458069015207
1.149,14.646191563396918,917.4464928170294
1.15,14.654193446772897,917.6762122191809
1.151,14.661272672568842,917.8769593687732
1.152,14.668355153211156,918.0777349399971
1.153,14.67544089003303,918.2785389248065
1.154,14.682529884367982,918.4793713151429
1.155,14.68962213754996,918.6802321029375
1.156,14.69671765091332,918.8811212801095
1.157,14.703816425792706,919.082038838566
1.158,14.710918463523226,919.2829847702022
1.159,14.718023765440348,919.4839590669034
1.16,14.725132332879937,919.6849617205428
1.161,14.732244167178171,919.88599272298
1.162,14.740291049503208,920.1161342328612
1.163,14.747409850193941,920.3172262670136
1.164,14.75453192193016,920.5183466245347
1.165,14.761657266049705,920.7194952972395
1.166,14.768785883890695,920.9206722769276
1.167,14.775917776791731,921.1218775553891
1.168,14.78305294609178,921.3231111244038
1.169,14.790191393130112,921.5243729757353
1.17,14.797333119246463,921.7256631011401
1.171,14.804478125780923,921.926981492361
1.172,14.811626414073979,922.1283281411297
1.173,14.818777985466422,922.329703039165
1.174,14.825932841299519,922.5311061781749
1.175,14.834028688195277,922.7617033353159
1.176,14.841190548046262,922.9631672829071
1.177,14.848355696540464,923.1646594455656
1.178,14.855524135020637,923.3661798149493
1.179,14.862695864829973,923.5677283827065
1.18,14.86987088731207,923.7693051404736
1.181,14.877049203810811,923.9709100798744
1.182,14.884230815670536,924.1725431925213
1.183,14.891415724235978,924.3742044700159
1.184,14.898603930852161,924.575893903945
1.185,14.90579543686457,924.7776114858873
1.186,14.912990243619037,924.9793572074078
1.187,14.920188352461818,925.1811310600605
1.188,14.92833343131718,925.4121825947052
1.189,14.93553858194565,925.6140170285472
1.19,14.942747038880622,925.8158795671284
1.191,14.949958803469885,926.0177702019533
1.192,14.957173877061635,926.2196889245156
1.193,14.964392261004356,926.4216357262943
1.194,14.97161395664699,926.623610598759
1.195,14.978838965338872,926.8256135333679
1.196,14.986067288429625,927.0276445215643
1.197,14.993298927269338,927.2297035547826
1.198,15.000533883208435,927.4317906244441
1.199,15.007772157597772,927.6339057219594
1.2,15.015013751788484,927.8360488387242
1.201,15.023208331048616,928.0675534539133
1.202,15.030457004934966,928.2697569201817
1.203,15.037709002856586,928.4719883788198
1.204,15.044964326166255,928.6742478211773
1.205,15.052222976217065,928.8765352385881
1.206,15.05948495436255,929.0788506223779
1.207,15.066750261956624,929.2811939638598
1.208,15.0740189003535,929.4835652543323
1.209,15.081290870907859,929.6859644850846
1.21,15.088566174974712,929.8883916473934
1.211,15.095844813909498,930.0908467325238
1.212,15.103126789067936,930.2933297317269
1.213,15.110412101806205,930.4958406362431
1.214,15.117700753480868,930.698379437302
1.215,15.125948903917672,930.9303700991256
1.216,15.133244676243159,931.1329689954932
1.217,15.140543791755642,931.3355957609914
1.218,15.147846251813244,931.5382503867992
1.219,15.15515205777445,931.7409328640837
1.22,15.162461210998062,931.9436431839986
1.221,15.169773712843321,932.1463813376861
1.222,15.17708956466983,932.3491473162774
1.223,15.18440876783759,932.5519411108908
1.224,15.191731323706895,932.7547627126303
1.225,15.199057233638497,932.9576121125913
1.226,15.206386498993531,933.1604893018557
1.227,15.21371912113342,933.3633942714922
1.228,15.221055101420053,933.5663270125589
1.229,15.229357136441898,933.7988021518163
1.23,15.23670027849824,934.0017947289299
1.231,15.244046782968745,934.2048150495287
1.232,15.251396651216767,934.4078631046178
1.233,15.258749884606111,934.6109388851943
1.234,15.26610648450097,934.8140423822402
1.235,15.273466452265824,935.0171735867264
1.236,15.28082978926561,935.2203324896107
1.237,15.288196496865615,935.4235190818399
1.238,15.295566576431531,935.6267333543489
1.239,15.302940029329331,935.8299752980579
1.24,15.31031685692546,936.0332449038765
1.241,15.317697060586736,936.2365421627039
1.242,15.325080641680257,936.4398670654224
1.243,15.33343687600521,936.6728250780398
1.244,15.340827660150584,936.8762095524287
1.245,15.34822182601231,937.079621642224
1.246,15.35561937495913,937.2830613382612
1.247,15.363020308360058,937.4865286313604
1.248,15.370424627584594,937.6900235123327
1.249,15.377832334002571,937.893545971975
1.25,15.385243428984209,938.0970960010728
1.251,15.392657913900052,938.300673590398
1.252,15.400075790121063,938.5042787307108
1.253,15.407497059018612,938.7079114127614
1.254,15.414921721964333,938.9115716272823
1.255,15.422349780330332,939.1152593649989
1.256,15.429781235489061,939.3189746166213
1.257,15.438191985142566,939.5524138633207
1.258,15.44563068479806,939.7561884170741
1.259,15.453072785546969,939.9599904557025
1.26,15.460518288763293,940.1638199698654
1.261,15.467967195821407,940.3676769502107
1.262,15.475419508096076,940.5715613873741
1.263,15.48287522696236,940.7754732719765
1.264,15.490334353795756,940.9794125946289
1.265,15.49779688997215,941.1833793459289
1.266,15.505262836867724,941.3873735164613
1.267,15.512732195859103,941.5913950967986
1.268,15.520204968323283,941.7954440775023
1.269,15.52768115563755,941.9995204491183
1.27,15.535160759179659,942.2036242021829
1.271,15.542643780327698,942.407755327219
1.272,15.55111325489547,942.6417079487151
1.273,15.558603565097734,942.8458980814675
1.274,15.56609729722434,943.0501155565705
1.275,15.57359445265494,943.2543603644953
1.276,15.58109503276954,943.4586324957004
1.277,15.588599038948523,943.662931940633
1.278,15.596106472572579,943.867258689724
1.279,15.603617335022852,944.0716127333967
1.28,15.611131627680852,944.2759940620593
1.281,15.61864935192837,944.4804026661056
1.282,15.626170509147661,944.6848385359203
1.283,15.633695100721324,944.8893016618731
1.284,15.641223128032344,945.0937920343231
1.285,15.648754592464018,945.2983096436143
1.286,15.657279240918939,945.5327399910843
1.287,15.664818036185052,945.7373163277047
1.288,15.67236027290678,945.9419198709905
1.289,15.679905952469023,946.146550611236
1.29,15.687455076256956,946.3512085387198
1.291,15.695007645656228,946.555893643711
1.292,15.70256366205283,946.7606059164649
1.293,15.710123126833057,946.9653453472234
1.294,15.717686041383667,947.1701119262166
1.295,15.72525240709173,947.3749056436615
1.296,15.732822225344734,947.5797264897633
1.297,15.740395497530448,947.7845744547125
1.298,15.747972225037099,947.9894495286882
1.299,15.755552409253271,948.1943517018581
1.3,15.763136051567844,948.3992809643739
1.301,15.770723153370154,948.6042373063775
1.302,15.779311175588438,948.8392107368238
1.303,15.786905656115168,949.0442254795465
1.304,15.794503600483361,949.2492672709405
1.305,15.802105010083793,949.454336101093
1.306,15.809709886307685,949.6594319600792
1.307,15.817318230546592,949.8645548379617
1.308,15.82493004419248,950.0697047247914
1.309,15.832545328637588,950.2748816106036
1.31,15.84016408527461,950.4800854854229
1.311,15.847786315496602,950.6853163392615
1.312,15.85541202069692,950.8905741621161
1.313,15.86304120226935,951.0958589439724
1.314,15.870673861608063,951.3011706748051
1.315,15.87831000010751,951.5065093445714
1.316,15.885949619162583,951.7118749432199
1.317,15.89459746731364,951.9473557188395
1.318,15.902244510204493,952.1527794055047
1.319,15.909895038022231,952.3582299896282
1.32,15.917549052163194,952.5637074611024
1.321,15.925206554024152,952.7692118098091
1.322,15.932867545002235,952.9747430256169
1.323,15.940532026494951,953.1803010983803
1.324,15.9481999999001,953.38588601794
1.325,15.955871466615928,953.5914977741262
1.326,15.963546428041063,953.7971363567565
1.327,15.971224885574387,954.0028017556314
1.328,15.978906840615252,954.2084939605425
1.329,15.986592294563343,954.4142129612668
1.33,15.994281248818732,954.6199587475693
1.331,16.001973704781776,954.8257313091996
1.332,16.00966966385329,955.0315306358968
1.333,16.01838169936743,955.2675499171231
1.334,16.026085130568962,955.4734069915987
1.335,16.03379206926881,955.6792907990649
1.336,16.041502516869205,955.8852013292037
1.337,16.049216474772837,956.0911385716884
1.338,16.056933944382745,956.2971025161768
1.339,16.064654927102257,956.5030931523133
1.34,16.072379424335153,956.709110469731
1.341,16.080107437485548,956.915154458049
1.342,16.087838967957946,957.1212251068742
1.343,16.095574017157126,957.3273224057982
1.344,16.103312586488325,957.5334463444009
1.345,16.11105467735714,957.7395969122507
1.346,16.118800291169446,957.9457740988992
1.347,16.126549429331572,958.1519778938879
1.348,16.13430209325019,958.3582082867443
1.349,16.14205828433229,958.5644652669823
1.35,16.150838948954682,958.8010537075083
1.351,16.15860266368153,959.0073680663552
1.352,16.166369909981334,959.2137089798048
1.353,16.174140689262643,959.420076437317
1.354,16.181915002934296,959.6264704283369
1.355,16.189692852405567,959.8328909422992
1.356,16.19747423908606,960.0393379686238
1.357,16.205259164385783,960.2458114967186
1.358,16.21304762971502,960.4523115159761
1.359,16.220839636484488,960.6588380157773
1.36,16.22863518610528,960.8653909854905
1.361,16.236434279988764,961.0719704144684
1.362,16.244236919546744,961.2785762920521
1.363,16.252043106191373,961.4852086075699
1.364,16.259852841335185,961.691867350336
1.365,16.26766612639099,961.8985525096508
1.366,16.276511851918144,962.1356743557666
1.367,16.284332709339086,962.3424165386455
1.368,16.292157121099905,962.5491851046261
1.369,16.299985088614985,962.7559800429551
1.37,16.307816613298996,962.9628013428638
1.371,16.31565169656704,963.169648993573
1.372,16.3234903398346,963.3765229842888
1.373,16.33133254451741,963.5834233042024
1.374,16.339178312031663,963.7903499424943
1.375,16.347027643793886,963.9973028883309
1.376,16.354880541220993,964.2042821308646
1.377,16.36273700573016,964.4112876592336
1.378,16.37059703873902,964.6183194625644
1.379,16.378460641665573,964.8253775299708
1.38,16.386327815928066,965.0324618505495
1.381,16.394198562945228,965.2395724133871
1.382,16.402072884136118,965.4467092075577
1.383,16.409950780920067,965.6538722221168
1.384,16.418870142775127,965.8915904405446
1.385,16.426755666929466,966.0988100708537
1.386,16.43464477112531,966.3060558873461
1.387,16.44253745678357,966.5133278790269
1.388,16.45043372532541,966.7206260348836
1.389,16.45833357817247,966.9279503438927
1.39,16.46623701674671,967.1353007950179
1.391,16.474144042470467,967.342677377209
1.392,16.482054656766348,967.5500800793997
1.393,16.489968861057424,967.7575088905133
1.394,16.497886656767097,967.9649637994592
1.395,16.50580804531906,968.1724447951311
1.396,16.513733028137448,968.3799518664108
1.397,16.521661606646706,968.5874850021673
1.398,16.529593782271697,968.7950441912556
1.399,16.537529556437523,969.0026294225147
1.4,16.545468930569736,969.2102406847729
1.401,16.55341190609426,969.4178779668447
1.402,16.562405445810274,969.6561892398648
1.403,16.57035610396796,969.8638827205468
1.404,16.578310367986713,970.0716021860668
1.405,16.586268239293926,970.2793476251832
1.406,16.59422971931733,970.4871190266402
1.407,16.60219480948495,970.6949163791675
1.408,16.610163511225224,970.9027396714814
1.409,16.618135825966945,971.1105888922851
1.41,16.626111755139277,971.3184640302693
1.411,16.634091300171644,971.5263650741074
1.412,16.64207446249393,971.7342920124628
1.413,16.65006124353636,971.9422448339839
1.414,16.658051644729433,972.1502235273039
1.415,16.66604566750409,972.3582280810446
1.416,16.674043313291588,972.5662584838126
1.417,16.68204458352357,972.7743147242024
