TimeMS,Acc,qDot
0.0,8.281048306174878,-0.3654077677251887
0.001,8.284084368191674,703.803072693859
0.002,8.287121503963196,703.9231115974352
0.003,8.290159713839829,704.0431659581867
0.004,8.293198998172059,704.1632357752002
0.005,8.295714926111298,704.2610607216578
0.006,8.298756174838548,704.3811585042399
0.007,8.301798499012724,704.5012717404423
0.008,8.304841898984664,704.6214004293433
0.009,8.307361207661804,704.7192697610201
0.01,8.310406574472822,704.8394264082526
0.011,8.313453018073952,704.9595985055207
0.012,8.316500538816374,705.0797860518942
0.013,8.319549137051379,705.1999890464416
0.014,8.322072715667648,705.2979143893941
0.015,8.325123283827853,705.4181453330849
0.016,8.328174930474214,705.5383917222568
0.017,8.33122765595837,705.6586535559702
0.018,8.333754624672764,705.7566232355532
0.019,8.336809322531657,705.8769130110434
0.02,8.33986510022294,705.9972182283608
0.021,8.342921958098596,706.1175388865569
0.022,8.345452321056749,706.215552881076
0.023,8.348511153759105,706.3359014736254
0.024,8.351571067641418,706.4562655043161
0.025,8.354632063056043,706.5766449721929
0.026,8.357694140355365,706.6970398762958
0.027,8.360228790312169,706.7951097933907
0.028,8.363292845534295,706.9155326224223
0.029,8.366357983637982,707.035970884915
0.03,8.369424204976012,707.1564245799018
0.031,8.371962258565434,707.2545387624817
0.032,8.375030460283707,707.3750203748426
0.033,8.378099746234165,707.4955174169094
0.034,8.38117011676995,707.6160298877076
0.035,8.383711578150285,707.7141883136952
0.036,8.38678393152617,707.8347286942543
0.037,8.389857370486219,707.9552845007336
0.038,8.392931895383889,708.075855732149
0.039,8.396007506572772,708.1964423875162
0.04,8.398553272063452,708.2946566458069
0.041,8.40163086919853,708.4152712012728
0.042,8.404709553624919,708.5359011778502
0.043,8.40778932569654,708.6565465745456
0.044,8.410338508395643,708.7548050259251
0.045,8.413420268878822,708.875478314975
0.046,8.416503118008336,708.9961670212799
0.047,8.419587056138445,709.1168711438378
0.048,8.42213966021693,709.2151737658435
0.049,8.425225589226393,709.3359057729542
0.05,8.428312608238539,709.456653193431
0.051,8.431400717608016,709.577416026265
0.052,8.433956747240762,709.6757627963171
0.053,8.437046849959787,709.7965535058424
0.054,8.440138044039227,709.9173596248149
0.055,8.443230329834075,710.0381811522174
0.056,8.446323707699436,710.1590180870307
0.057,8.448884063879682,710.25742056903
0.058,8.451979438213723,710.3782853705583
0.059,8.45507590562258,710.4991655765568
0.06,8.45817346646171,710.6200611859986
0.061,8.460737257651129,710.71850776458
0.062,8.463836817434643,710.8394312327431
0.063,8.466937471653768,710.9603701013867
0.064,8.470039220664288,711.0813243694747
0.065,8.472606451050373,711.1798150216684
0.066,8.475710201483412,711.3007971404259
0.067,8.478815047714187,711.4217946556414
0.068,8.48192099009886,711.5428075662717
0.069,8.48502802899364,711.6638358712701
0.07,8.487599603159257,711.7623821414703
0.071,8.490708646605686,711.8834382869188
0.072,8.493818787569829,712.0045098237197
0.073,8.496930026408277,712.1255967508187
0.074,8.499505049254104,712.2241870422844
0.075,8.502618295127828,712.3453018016472
0.076,8.505732639884448,712.4664319482694
0.077,8.508848083880933,712.5875774810883
0.078,8.511426559607113,712.6862117704568
0.079,8.514544013124906,712.8073851272937
0.08,8.517662566892154,712.9285738672647
0.081,8.52078222126612,713.0497779892976
0.082,8.523902976604221,713.1709974923198
0.083,8.526485813394142,713.2696873041459
0.084,8.529608581392708,713.3909346207246
0.085,8.532732451366254,713.5121973151997
0.086,8.53585742367253,713.6334753864904
0.087,8.53844372285499,713.7322091429847
0.088,8.54157071031328,713.8535150194513
0.089,8.544698801116164,713.974836269618
0.09,8.547827995621711,714.0961728923936
0.091,8.550417761409513,714.1949505697994
0.092,8.553548973561076,714.3163149893119
0.093,8.556681290428152,714.437694778294
0.094,8.559814712369214,714.5590899356475
0.095,8.562407948979082,714.6579115100885
0.096,8.565543391062558,714.7793344556788
0.097,8.568679939233865,714.9007727664775
0.098,8.571817593851812,715.0222264413776
0.099,8.574956355275324,715.1436954792714
0.1,8.577553975611453,715.2425724488639
0.101,8.580694760329594,715.3640692642103
0.102,8.583836652868378,715.4855814393557
0.103,8.58697965358707,715.6071089731836
0.104,8.589580754294836,715.7060297854049
0.105,8.592725780810081,715.8275850880501
0.106,8.595871916521343,715.9491557461603
0.107,8.599019161788238,716.0707417586099
0.108,8.601623747096967,716.1697063891841
0.109,8.604773020664766,716.2913201617549
0.11,8.6079234048053,716.4129492854246
0.111,8.611074899878556,716.5345937590588
0.112,8.61422750624457,716.6562535815204
0.113,8.616836492684053,716.7552735079439
0.114,8.619991130513197,716.876961079495
0.115,8.623146880653476,716.9986639966029
0.116,8.62630374346531,717.1203822581227
0.117,8.628916224083936,717.2194459475895
0.118,8.632075120868757,717.3411919493664
0.119,8.635235131344496,717.4629532922596
0.12,8.638396255871948,717.584729975117
0.121,8.641012234911692,717.6838374029501
0.122,8.644175395924403,717.8056418171703
0.123,8.64733967200919,717.9274615680354
0.124,8.650505063527147,718.0492966543821
0.125,8.653124545233913,718.1484477957827
0.126,8.656291975751868,718.2703106045384
0.127,8.659460522724379,718.392188745433
0.128,8.662630186512926,718.5140822172962
0.129,8.665800967479091,718.6359910189553
0.13,8.668424873136283,718.7351973239571
0.131,8.671597696277768,718.8571338366669
0.132,8.674771637619513,718.9790856757994
0.133,8.677946697523417,719.1010528401722
0.134,8.680574115463166,719.2003028022425
0.135,8.683751220062623,719.3222976685736
0.136,8.686929444247882,719.4443078567475
0.137,8.690108788381236,719.5663333655746
0.138,8.692739722862052,719.6656269595087
0.139,8.695921114213627,719.7876801611404
0.14,8.69910362653792,719.9097486800028
0.141,8.702287260197581,720.031832514898
0.142,8.704921715481854,720.131169715367
0.143,8.708107398884836,720.2532812338513
0.144,8.711294204648832,720.375408064922
0.145,8.714482133136805,720.497550207371
0.146,8.717671184711866,720.6197076599896
0.147,8.720310086855202,720.719099888977
0.148,8.72350119136201,720.841285013497
0.149,8.7266934199828,720.9634854447091
0.15,8.729886773081015,721.085701181396
0.151,8.732529205680713,721.1851369592194
0.152,8.735724614241288,721.3073803584527
0.153,8.738921148307206,721.429639059659
0.154,8.742118808242232,721.5519130616112
0.155,8.7447647755733,721.6513923625336
0.156,8.747964493503751,721.7736940176162
0.157,8.75116533833221,721.8960109699177
0.158,8.754367310422857,722.0183432182039
0.159,8.757016816764219,722.1178660163637
0.16,8.76022084938576,722.2402259083016
0.161,8.763426010299385,722.3626010926729
0.162,8.766632299869602,722.4849915682338
0.163,8.769839718461045,722.6073973337396
0.164,8.772493694659014,722.706975022473
0.165,8.775703176982883,722.8294084196093
0.166,8.778913789359102,722.9518571031064
0.167,8.782125532152655,723.0743210717105
0.168,8.78478305705116,723.1739421987718
0.169,8.78799686611814,723.2964337893873
0.17,8.791211806634617,723.4189406615031
0.171,8.79442787896591,723.5414628138556
0.172,8.797088956856463,723.6411273529698
0.173,8.800307098004625,723.763677117652
0.174,8.803526372000771,723.8862421589396
0.175,8.806746779210592,724.0088224755604
0.176,8.80941141438857,724.1085304003255
0.177,8.812633892961134,724.2311383195323
0.178,8.81585750578151,724.3537615104145
0.179,8.81908225321575,724.4763999716923
0.18,8.821750449980458,724.5761512555815
0.181,8.824977271325753,724.6988173096383
0.182,8.828205228320087,724.8214986304092
0.183,8.831434321329839,724.9441952166048
0.184,8.834664550721511,725.0669070669336
0.185,8.837337245859775,725.1667130670851
0.186,8.840569552380211,725.289452497756
0.187,8.843802996319008,725.4122071888476
0.188,8.847037578042963,725.5349771390577
0.189,8.849713844504265,725.634826437914
0.19,8.85295050591083,725.7576239585175
0.191,8.856188306140016,725.8804367345024
0.192,8.859427245559015,726.0032647645594
0.193,8.862107087655218,726.103157335175
0.194,8.8653481093131,726.2260129256131
0.195,8.868590271199235,726.34888376636
0.196,8.871833573681188,726.4717698560983
0.197,8.874516995728033,726.5717056714005
0.198,8.877762383007562,726.6946193114435
0.199,8.881008911922365,726.8175481966904
0.2,8.884256582840303,726.9404923258119
0.201,8.8875053961294,727.0634516974793
0.202,8.89019333974591,727.1634420846156
0.203,8.893444241063444,727.2864289938128
0.204,8.896696285792844,727.4094311417361
0.205,8.899949474302467,727.5324485270474
0.206,8.902641007643219,727.6324820972155
0.207,8.905896286745508,727.7555270098377
0.208,8.90915271066975,727.8785871560034
0.209,8.912410279784627,728.0016625343637
0.21,8.915105407177975,728.101739260071
0.211,8.9183650694522,728.22484215546
0.212,8.921625877959778,728.3479602791735
0.213,8.9248878330698,728.4710936298565
0.214,8.927586558847995,728.571213483482
0.215,8.93085060968645,728.6943743408457
0.216,8.934115808171072,728.8175504212833
0.217,8.93738215467128,728.9407417234295
0.218,8.940084483170397,729.040904677221
0.219,8.943352927970592,729.1641234756371
0.22,8.946622521831117,729.2873574918416
0.221,8.949893265121725,729.4106067244591
0.222,8.9531651582123,729.5338711721135
0.223,8.955872037042946,729.6340885153404
0.224,8.959146031680552,729.7573804460653
0.225,8.962421177164128,729.8806875878745
0.226,8.965697473863894,730.0040099393821
0.227,8.968407965235047,730.1042703195799
0.228,8.971686366058913,730.2276201436023
0.229,8.974965919145978,730.3509851733448
0.23,8.978246624866838,730.4743654074138
0.231,8.980960733127167,730.5746687964065
0.232,8.984243545551633,730.6980764923692
0.233,8.987527511657872,730.8214993886533
0.234,8.990812631816834,730.9449374838553
0.235,8.993530361318918,731.0452838533367
0.236,8.996817590763436,731.1687493997478
0.237,9.000105975309692,731.2922301410472
0.238,9.003395515328982,731.4157260758226
0.239,9.006116870429208,731.5161153973546
0.24,9.009408522318447,731.6396387725891
0.241,9.01270133073073,731.7631773372442
0.242,9.015995296037731,731.8867310898992
0.243,9.018720281096352,731.9871633349119
0.244,9.022016360860135,732.1107445172111
0.245,9.025313598569623,732.234340883428
0.246,9.02861199459684,732.3579524321318
0.247,9.0319115493139,732.4815791618901
0.248,9.034641119108683,732.5820655733453
0.249,9.037942791548863,732.7057197190381
0.25,9.04124562373116,732.8293890416717
0.251,9.044549616028068,732.9530735398043
0.252,9.047282825655499,733.0536028096908
0.253,9.050588938267877,733.1773147127961
0.254,9.053896212048112,733.30104178726
0.255,9.057204647369046,733.4247840316317
0.256,9.059941501201997,733.5253561309511
0.257,9.063252059433196,733.649125769268
0.258,9.066563780259383,733.7729105733279
0.259,9.069876664053739,733.8967105416697
0.26,9.0726171664689,733.99732544129
0.261,9.07593217577075,734.1211527924843
0.262,9.079248349096071,734.2449953037697
0.263,9.082565686818405,734.3688529736768
0.264,9.085309842196311,734.469510644333
0.265,9.088629308025823,734.5933956859345
0.266,9.091949939308616,734.7172958819393
0.267,9.09527173641861,734.8412112308695
0.268,9.09859469972978,734.9651417312432
0.269,9.101343468901492,735.0658533759415
0.27,9.104668563602388,735.1898112338657
0.271,9.107994825562038,735.3137842389838
0.272,9.111322255154791,735.4377723898057
0.273,9.114074687209378,735.538526738913
0.274,9.117404250797048,735.6625422359779
0.275,9.120734983076394,735.78657287447
0.276,9.124066884422094,735.9106186528891
0.277,9.126822983752708,736.0114156767073
0.278,9.130157021700972,736.1354887899965
0.279,9.133492229775184,736.2595770389104
0.28,9.136828608350399,736.3836804219401
0.281,9.139588379353986,736.4845200906361
0.282,9.14292689714185,736.6086507970966
0.283,9.146266586491299,736.732796633344
0.284,9.149607447777766,736.8569575978617
0.285,9.152370894855128,736.9578398814672
0.286,9.155713897966756,737.082028157909
0.287,9.159058074076992,737.2062315582656
0.288,9.162403423561573,737.3304500810079
0.289,9.1651705511174,737.4313749494229
0.29,9.168518045042122,737.555620772518
0.291,9.1718667134038,737.6798817136181
0.292,9.175216556578563,737.8041577711863
0.293,9.177987369021348,737.9051251941735
0.294,9.181339359253663,738.0294285404559
0.295,9.184692525362664,738.1537469987989
0.296,9.188046867724852,738.2780805676567
0.297,9.19140238671677,738.4024292454795
0.298,9.194177853278038,738.5034503693082
0.299,9.197535522632457,738.6278263210946
0.3,9.200894369681473,738.7522173774043
0.301,9.204254394802044,738.8766235366809
0.302,9.207033556233638,738.977687146251
0.303,9.210395734339624,739.1021205677007
0.304,9.213759091583034,739.2265690876488
0.305,9.217123628341168,739.3510327045283
0.306,9.219906489064115,739.4521387691615
0.307,9.223273181433033,739.5766296363572
0.308,9.226641054383567,739.7011355959905
0.309,9.230010108293333,739.8256566464833
0.31,9.232796672732514,739.9268051353658
0.311,9.236167884880896,740.0513534242513
0.312,9.239540279056396,740.1759167994752
0.313,9.242913855637045,740.3004952594523
0.314,9.245704128221215,740.4016861416355
0.315,9.249079865670712,740.526291828013
0.316,9.252456786594243,740.6509125945954
0.317,9.255834891370174,740.7755484397878
0.318,9.25862887653189,740.8767816841852
0.319,9.262009144809367,741.0014447437187
0.32,9.265390598009162,741.1261228772881
0.321,9.268773236509958,741.2508160832873
0.322,9.271570938685612,741.3520916586752
0.323,9.274955743323108,741.4768120668898
0.324,9.27834173433251,741.6015475429325
0.325,9.281728912092913,741.7262980851891
0.326,9.284530335722778,741.8276159602095
0.327,9.287919682257447,741.9523936924867
0.328,9.291310216615027,742.0771864863498
0.329,9.294701939174944,742.2019943401745
0.33,9.298094850316751,742.3268172523359
0.331,9.300900974254715,742.4281885064355
0.332,9.30429605750118,742.5530385931635
0.333,9.30769233040268,742.677903733564
0.334,9.311089793339118,742.8027839260017
0.335,9.313899648786403,742.9041974083534
0.336,9.317299286470597,743.0291047630097
0.337,9.320700115263913,743.1540271650143
0.338,9.324102135546589,743.2789646127209
0.339,9.326915726955935,743.3804202915159
0.34,9.330319924631912,743.5053848890243
0.341,9.333725314872439,743.6303645275192
0.342,9.33713189805814,743.7553592053456
0.343,9.33994922988611,743.8568570486362
0.344,9.343357993113091,743.98187886378
0.345,9.346767950361404,744.1069157135105
0.346,9.350179102012023,744.2319675961638
0.347,9.353000178719066,744.3335075718663
0.348,9.356413513061389,744.4585865792832
0.349,9.359828042883217,744.5836806148525
0.35,9.363243768565866,744.7087896768994
0.351,9.36606859461621,744.8103717527895
0.352,9.36948650564343,744.9355079269782
0.353,9.372905613609676,745.0606591228468
0.354,9.37632591889664,745.1858253387121
0.355,9.379154498758338,745.287449482426
0.356,9.382576992045177,745.4126427977424
0.357,9.38600068373191,745.5378511282285
0.358,9.389425574200585,745.6630744721921
0.359,9.392257912345569,745.764740651229
0.36,9.39568499347186,745.8899910818831
0.361,9.399113274460312,746.0152565211622
0.362,9.402542755693313,746.1405369673627
0.363,9.405378856597288,746.2422451490801
0.364,9.408810531148093,746.3675526691427
0.365,9.41224340702468,746.4928751912472
0.366,9.41567748460977,746.6182127136794
0.367,9.419112764286211,746.7435652347244
0.368,9.421953617672242,746.8453264207374
0.369,9.425391094025413,746.9707059993895
0.37,9.42882977355243,747.09610057174
0.371,9.432269656636487,747.2215101360637
0.372,9.435114282916835,747.3233132504689
0.373,9.438556365343326,747.4487498594139
0.374,9.44199965241035,747.5742014553895
0.375,9.445444144501487,747.6996680366618
0.376,9.44829254816432,747.8015130463598
0.377,9.45173924226603,747.9270066591982
0.378,9.45518714247632,748.052515252362
0.379,9.458636249179108,748.1780388241071
0.38,9.461488434716467,748.2799256958594
0.381,9.464939746100416,748.4054762860459
0.382,9.468392265062377,748.5310418498159
0.383,9.471845991986614,748.6566223854156
0.384,9.474701963894306,748.7585510858406
0.385,9.47815789817273,748.8841586266866
0.386,9.481615041499946,749.0097811343371
0.387,9.485073394260594,749.1354186070281
0.388,9.487933157038247,749.2373891026032
0.389,9.491393719828539,749.3630535672759
0.39,9.494855493139754,749.4887329919351
0.391,9.498318477356886,749.6144273748071
0.392,9.501182035507986,749.7164396318698
0.393,9.504647232432667,749.8421609933885
0.394,9.508113641351787,749.9678973080393
0.395,9.511581262650694,750.0936485740386
0.396,9.51444862068249,750.1957025587823
0.397,9.51791845736928,750.3214807900225
0.398,9.521389507525383,750.4472739675027
0.399,9.524861771536514,750.5730820894291
0.4,9.52773293396007,750.6751777679056
0.401,9.531207416041864,750.8010128415978
0.402,9.534683113069187,750.9268628545987
0.403,9.538160025428109,751.052727805105
0.404,9.541034996758352,751.1548651432249
0.405,9.544514129873154,751.2807570319507
0.406,9.547994479411093,751.4066638530171
0.407,9.55147604575859,751.5325856046112
0.408,9.554354830514194,751.6347645681407
0.409,9.55783862030522,751.760713244337
0.41,9.561323627998345,751.8866768458678
0.411,9.564809853980352,752.0126553709102
0.412,9.567692456683806,752.1148759254723
0.413,9.571180908799441,752.2408813614296
0.414,9.574670580297473,752.3669017156762
0.415,9.578161471565052,752.4929369863798
0.416,9.581047896742698,752.5951990974564
0.417,9.58454101683643,752.7212612653157
0.418,9.588035357794263,752.8473383443826
0.419,9.591530920003677,752.973430332814
0.42,9.595027703852276,753.0995372287648
0.421,9.597918956941154,753.201851781022
0.422,9.601417973015627,753.327985556697
0.423,9.604918211825106,753.4541342346066
0.424,9.608419673757487,753.5802978128934
0.425,9.611314759570249,753.6826538431169
0.426,9.614818456426566,753.8088442872086
0.427,9.618323377502628,753.9350496263651
0.428,9.62182952318674,754.0612698587208
0.429,9.62472844626207,754.1636673319207
0.43,9.628236829570588,754.2899144160897
0.431,9.631746438584983,754.4161763881161
0.432,9.635257273693918,754.542453246125
0.433,9.638160038574311,754.6448921271673
0.434,9.641673114010548,754.7711958229257
0.435,9.645187416640166,754.8975143992963
0.436,9.648702946852136,755.023847854392
0.437,9.651609558083923,755.1263281079991
0.438,9.655127331328563,755.25268838671
0.439,9.658646333255415,755.3790635387483
0.44,9.662166564253837,755.5054535622178
0.441,9.6650770263871,755.6079751529658
0.442,9.668599503125977,755.7343919858436
0.443,9.672123210037281,755.8608236847261
0.444,9.675648147510746,755.9872702477074
0.445,9.678562465099342,756.0898331400259
0.446,9.682089651023459,756.2163064981359
0.447,9.685618068611586,756.3427947148891
0.448,9.68914771825377,756.469297788368
0.449,9.692065895855421,756.5719019465437
0.45,9.69559779666093,756.6984318008004
0.451,9.699130930623365,756.8249765062997
0.452,9.702665298133171,756.9515360611147
0.453,9.705587340309323,757.0541814492864
0.454,9.709123961697532,757.1807677704556
0.455,9.71266181773697,757.307368935428
0.456,9.716200908818445,757.4339849422672
0.457,9.719126820134331,757.5366715244264
0.458,9.722668167811733,757.663314283124
0.459,9.726210751636003,757.789971878145
0.46,9.729754571998308,757.9166443075444
0.461,9.732684357023006,758.0193720475394
0.462,9.736230436701184,758.1460712142278
0.463,9.739777754023274,758.2727852097235
0.464,9.743326309380768,758.3995140320695
0.465,9.746259972687081,758.5022828935986
0.466,9.749810790082844,758.6290384385925
0.467,9.753362846620888,758.755808804837
0.468,9.756916142693099,758.8825939903656
0.469,9.759853688857607,758.9854039369806
0.47,9.763409249692904,759.1122158304428
0.471,9.766966051170206,759.239042537559
0.472,9.770524093681749,759.365884056353
0.473,9.77346552728487,759.4687350514596
0.474,9.777025837286754,759.5956032633992
0.475,9.780587389431764,759.7224862813591
0.476,9.784150184112477,759.8493841033513
0.477,9.78709550973835,759.9522761102058
0.478,9.790660574639082,760.0792006104826
0.479,9.794226883185406,760.2061399091053
0.48,9.79779443577026,760.3330940040767
0.481,9.800743658006807,760.4360269857873
0.482,9.804313483543805,760.5630077441089
0.483,9.80788455423019,760.6900032930619
0.484,9.811456870459278,760.817013630639
0.485,9.81440999389824,760.9199875501679
0.486,9.817984585814008,761.0470245360871
0.487,9.821560424384367,761.1740763048851
0.488,9.825137510002968,761.3011428545436
0.489,9.828094539239805,761.4041576747018
0.49,9.831673903282065,761.5312508576208
0.491,9.835254515485456,761.658358815626
0.492,9.838836376244004,761.785481546689
0.493,9.841797315877947,761.8885372301385
0.494,9.845381457799562,762.0156865793065
0.495,9.848966849390191,762.1428506957271
0.496,9.852553491044223,762.2700295773625
0.497,9.85551834567832,762.3731260866188
0.498,9.859107271237251,762.5003315711291
0.499,9.862697447974483,762.6275518150213
0.5,9.866288876284727,762.754786816245
0.501,9.869257650525748,762.8579241136714
0.502,9.872851365485161,762.9851857024667
0.503,9.876446333133492,763.1124620427308
0.504,9.880042553865835,763.2397531324053
0.505,9.8830152523243,763.342931180216
0.506,9.886613762452507,763.4702488420838
0.507,9.890213526781592,763.5975812474682
0.508,9.893814545707013,763.7249283942995
0.509,9.89679117299727,763.8281471545598
0.51,9.900394484067666,763.9555208581318
0.511,9.903999050852308,764.0829092972293
0.512,9.907604873746978,764.2103124697709
0.513,9.91058543448706,764.3135719043939
0.514,9.914193552278263,764.4410016181492
0.515,9.917802927298402,764.5684460593978
0.516,9.921413559943646,764.6959052260487
0.517,9.92439805875537,764.7992052967973
0.518,9.928010989051113,764.9266909890599
0.519,9.93162517809184,765.0541914007429
0.52,9.935240626274071,765.1817065297449
0.521,9.93822906778304,765.2850471982329
0.522,9.941846816372168,765.4125888371693
0.523,9.94546582522372,765.5401451874144
0.524,9.949086094734543,765.6677162468557
0.525,9.95207848357006,765.7710974745426
0.526,9.955701056246614,765.8986950281663
0.527,9.959324890704357,766.0263072849458
0.528,9.96294998734052,766.1539342427583
0.529,9.965946328135658,766.2573559909531
0.53,9.969573730698803,766.3850094271212
0.531,9.973202396563261,766.5126775582512
0.532,9.976832326126612,766.6403603822099
0.533,9.97983262351822,766.7438226120719
0.534,9.983464861772228,766.8715318984836
0.535,9.987098364849052,766.9992558716236
0.536,9.990733133146616,767.1269945293484
0.537,9.993737391775257,767.2304972018816
0.538,9.99737447152958,767.3582623060812
0.539,10.00101281762957,767.486042088735
0.54,10.004652430473524,767.6138365476891
0.541,10.007660654983484,767.7173796237456
0.542,10.011302582052716,767.8452005131207
0.543,10.014945776991807,767.9730360726344
0.544,10.018590240199405,768.100886300122
0.545,10.021602435238778,768.2044697404035
0.546,10.025249215442605,768.3323463821827
0.547,10.028897265041865,768.4602376857453
0.548,10.032546584435554,768.5881436489153
0.549,10.035562754656121,768.6917674139684
0.55,10.039214393819407,768.8196997752243
0.551,10.042867303905064,768.947646789868
0.552,10.046521485312407,769.0756084557112
0.553,10.049541635369671,769.1792725059282
0.554,10.05319813932242,769.3072605535764
0.555,10.056855915725784,769.435263246173
0.556,10.06051496497948,769.5632805815217
0.557,10.06353909953275,769.6669848771446
0.558,10.067200474110043,769.7950285779392
0.559,10.070863122667605,769.9230869152051
0.56,10.074527045605493,770.0511598867341
0.561,10.077555169317737,770.1549043878479
0.562,10.081221420359851,770.2830037083884
0.563,10.084888946913235,770.4111176568808
0.564,10.088557749378275,770.5392462311052
0.565,10.091589866916204,770.6430308976406
0.566,10.09526100026854,770.7711858043664
0.567,10.098933410664458,770.8993553304821
0.568,10.102607098504741,771.0275394737588
0.569,10.10564321453884,771.1313642654947
0.57,10.109319236051878,771.2595747246843
0.571,10.112996536142209,771.3877997946626
0.572,10.116675115210969,771.5160394731893
0.573,10.119715234415395,771.6199043497472
0.574,10.123396149944794,771.7481703275221
0.575,10.127078345586561,771.8764509074426
0.576,10.130761821742148,772.0047460872569
0.577,10.133805948794782,772.1086510081035
0.578,10.137491764201327,772.2369724704248
0.579,10.141178861256623,772.3653085262061
0.58,10.144225951621605,772.4692429189677
0.581,10.147915389990315,772.5976052448125
0.582,10.151606111143447,772.7259821576616
0.583,10.155298115483115,772.8543736552452
0.584,10.158349221838138,772.9583480214088
0.585,10.162043570285723,773.0867657721797
0.586,10.165739203056502,773.215198101198
0.587,10.169436120552948,773.3436450061839
0.588,10.172491247586066,773.447659304789
0.589,10.176190511987334,773.5761324460077
0.59,10.179891062251938,773.704620156676
0.591,10.183592898782644,773.8331224345012
0.592,10.186652051185684,773.9371766244338
0.593,10.190356237420565,774.0657051214613
0.594,10.194061711060234,774.194248179097
0.595,10.197768472507857,774.3228057950394
0.596,10.200831654976293,774.4268998350266
0.597,10.204540768929842,774.5554836530621
0.598,10.208251171831003,774.6840820228243
0.599,10.211962864083322,774.8126949420005
0.6,10.215030081316339,774.9168287906125
0.601,10.218744128878726,775.0454678946943
0.602,10.222459466932921,775.1741215415792
0.603,10.226176095882773,775.3027897289421
0.604,10.229247352583318,775.4069633445937
0.605,10.232966339649828,775.5356576995977
0.606,10.236686618753668,775.6643665884383
0.607,10.240408190299062,775.7930900087804
0.608,10.243483491173727,775.8973033497269
0.609,10.247207423644772,776.0260529203671
0.61,10.25093264970003,776.1548170158359
0.611,10.254659169744103,776.2835956337877
0.612,10.25773851950318,776.3878486581276
0.613,10.261467403284279,776.5166534089552
0.614,10.265197582197853,776.6454726755621
0.615,10.26892905664879,776.7743064555897
0.616,10.272012460006318,776.8785991212637
0.617,10.27574630100811,777.007459016667
0.618,10.279481438691944,777.1363334187564
0.619,10.283217873463109,777.2652223251637
0.62,10.286305335136765,777.3695545899539
0.621,10.290044139275004,777.498469594158
0.622,10.293784241646215,777.6273990959136
0.623,10.297525642656074,777.7563430928425
0.624,10.300617167367234,777.8607149143704
0.625,10.304360940562773,777.9896849914373
0.626,10.308106013543595,778.1186695568792
0.627,10.311852386715671,778.2476686083047
0.628,10.314947979189448,778.3520799440361
0.629,10.318696727368259,778.4811050578634
0.63,10.322446776885975,778.6101446508461
0.631,10.326198128148965,778.739198720582
0.632,10.329297793114105,778.8436495278212
0.633,10.33305152220726,778.972729642143
0.634,10.336806554194318,779.1018242263576
0.635,10.339909230207937,779.2063040783997
0.636,10.343666642112062,779.3354246939616
0.637,10.347425358059477,779.4645597725334
0.638,10.351185378457116,779.5937093116925
0.639,10.354292135192182,779.6982285605845
0.64,10.358054538334532,779.8274041131377
0.641,10.361818247077471,779.9565941193629
0.642,10.365583261828345,780.0857985768286
0.643,10.36869410402373,780.1903571794379
0.644,10.372461504349323,780.3195876322635
0.645,10.37623021183421,780.4488325293825
0.646,10.380000226886077,780.5780918683514
0.647,10.383115159284275,780.6826897813842
0.648,10.386887562743286,780.8119750975993
0.649,10.390661274921646,780.9412748486867
0.65,10.394436296227356,781.0705890321905
0.651,10.397555323574544,781.1752262121918
0.652,10.401332736122246,781.3045663547484
0.653,10.405111458950648,781.4339209227115
0.654,10.40889149246816,781.5632899136149
0.655,10.412014619514217,781.6679663169704
0.656,10.415797047110935,781.7973612486529
0.657,10.419580786551101,781.9267705962336
0.658,10.423365838243459,782.056194357236
0.659,10.426493069741896,782.1609099401678
0.66,10.430280518353097,782.2903596235955
0.661,10.434069280371842,782.4198237133706
0.662,10.437859356207198,782.5493022070044
0.663,10.44099069691518,782.6540569255741
0.664,10.444783172511428,782.7835613231995
0.665,10.448576963080612,782.9130801175771
0.666,10.452372069032203,783.0426133062074
0.667,10.455507523710601,783.147407116315
0.668,10.459305032267496,783.2769661904216
0.669,10.46310385736412,783.4065396516432
0.67,10.466242353720105,783.5113622232805
0.671,10.470043583524413,783.6409615562233
0.672,10.473846131026507,783.7705752691188
0.673,10.47764999663647,783.900203359449
0.674,10.48079261524861,784.0050649455153
0.675,10.484598888414835,784.1347188889102
0.676,10.48840648084798,784.2643872025458
0.677,10.49221539295842,784.3940698838898
0.678,10.495362138597606,784.4989704398407
0.679,10.499173461115324,784.628678955514
0.68,10.502986104470398,784.7584018316703
0.681,10.506800069073606,784.8881390657675
0.682,10.509950946514312,784.9930785468937
0.683,10.513767324378184,785.122841596503
0.684,10.51758502465122,785.2526189967948
0.685,10.521404047744559,785.3824107452162
0.686,10.524559061764911,785.4873891066441
0.687,10.528380500974679,785.6172066516782
0.688,10.532203264166778,785.7470385375514
0.689,10.53602735175265,785.8768847616972
0.69,10.539186507134469,785.9819019583919
0.691,10.54301301369496,786.1117739601711
0.692,10.546840845812257,786.2416602929003
0.693,10.550670003898194,786.3715609540036
0.694,10.553833305426876,786.4766169407638
0.695,10.557664885348002,786.6065433604388
0.696,10.561497792401768,786.7364841011321
0.697,10.565332027000379,786.8664391602563
0.698,10.56849947946497,786.971533891717
0.699,10.572336138761708,787.1015146902687
0.7,10.57617412676829,787.2315097998636
0.701,10.579344648205783,787.3366330343222
0.702,10.58318506302655,787.466653869124
0.703,10.587026807722845,787.5966890075556
0.704,10.590869882707487,787.7267384470096
0.705,10.594044563415663,787.8319003468584
0.706,10.597890068081602,787.9619754922334
0.707,10.601736904202603,788.0920649311862
0.708,10.605585072191813,788.2221686610972
0.709,10.608763916969654,788.3273691805185
0.71,10.612614517509659,788.4574985969821
0.711,10.616466451085584,788.5876422969264
0.712,10.620319718110945,788.7178002777217
0.713,10.623502731761047,788.8230393707329
0.714,10.627358434209093,788.95322301863
0.715,10.631215471275235,789.083420939866
0.716,10.635073843373343,789.2136331317997
0.717,10.638261030701978,789.3189107522539
0.718,10.642121841097044,789.4491485917559
0.719,10.645983987693757,789.5794006944126
0.72,10.649847470906327,789.7096670575692
0.721,10.653038836723347,789.8149831591514
0.722,10.656904761109525,789.9452751502606
0.723,10.660772023282254,790.0755813942947
0.724,10.664640623656046,790.2059018885868
0.725,10.667836172774892,790.3112564248157
0.726,10.671707217201357,790.4416025273622
0.727,10.675579601000544,790.5719628725575
0.728,10.678778242990571,790.6773456807016
0.729,10.682653072970304,790.807731619519
0.73,10.68652924349517,790.9381317933529
0.731,10.690406754980346,791.0685461995176
0.732,10.693609588649315,791.1739673610517
0.733,10.69748954919821,791.3044073409945
0.734,10.701370851880784,791.4348615456016
0.735,10.705253497112574,791.5653299721758
0.736,10.708460527283819,791.6707894401611
0.737,10.712345624464877,791.8012834205866
0.738,10.716232065369518,791.9317916152804
0.739,10.72011985041357,792.062314021531
0.74,10.723331081914074,792.1678117488623
0.741,10.72722132179535,792.2983596889547
0.742,10.731112906991408,792.4289218328723
0.743,10.73500583791847,792.559498177894
0.744,10.738221275578761,792.6650341172968
0.745,10.742116664233361,792.7956359760665
0.746,10.746013399795304,792.9262520281748
0.747,10.749911482681181,793.0568822708891
0.748,10.753131131335374,793.1624563749197
0.749,10.757031674841462,793.2931121112039
0.75,10.760933566848808,793.4237820302952
0.751,10.764156328820826,793.5293842050178
0.752,10.76806068358636,793.6600796026936
0.753,10.77196638803116,793.7907891753508
0.754,10.775873442572424,793.9215129202371
0.755,10.779100423951341,794.0271531766556
0.756,10.78300994414762,794.1579023798031
0.757,10.786920815619393,794.2886657473217
0.758,10.790833038784202,794.419443276447
0.759,10.794064244413958,794.5251215666557
0.76,10.797978936132973,794.6559245336342
0.761,10.801894980725036,794.7867416543282
0.762,10.805812378608056,794.9175729259623
0.763,10.809047813336175,795.023289201886
0.764,10.812967682674964,795.1541458908806
0.765,10.816888906485676,795.2850167228893
0.766,10.820811485186555,795.4159016951236
0.767,10.824051153864193,795.5216559085192
0.768,10.827976206924784,795.6525662775379
0.769,10.831902616057532,795.783490778824
0.77,10.83514541500205,795.8892728936448
0.771,10.839074300640748,796.0202227764332
0.772,10.843004543534313,796.1511867835064
0.773,10.84693614410159,796.282164912055
0.774,10.850183185438018,796.3879848800156
0.775,10.854117265419305,796.5189883693427
0.776,10.858052704258018,796.6500059721291
0.777,10.8619895023733,796.7810376855518
0.778,10.865240790962511,796.8868954579402
0.779,10.86918007140225,797.0179525113331
0.78,10.873120712303239,797.149023667312
0.781,10.877062714085044,797.2801089230443
0.782,10.880318254791534,797.3860044509805
0.783,10.884262741810561,797.517115025788
0.784,10.888208590896058,797.6482396922644
0.785,10.892155802467917,797.7793784475646
0.786,10.895415600159682,797.8853116819942
0.787,10.899365299883915,798.0164757353898
0.788,10.903316363281169,798.1476538694917
0.789,10.906579308247721,798.2536148332459
0.79,10.910532861951861,798.3848182498632
0.791,10.914487780516344,798.5160357390416
0.792,10.918444064361696,798.6472672979162
0.793,10.921711274785258,798.7532658824224
0.794,10.925670051856752,798.8845227026843
0.795,10.929630195397452,799.0157935844645
0.796,10.933591705828208,799.1470785248849
0.797,10.93686318658651,799.2531146806186
0.798,10.940827193165028,799.3844248612119
0.799,10.944792567822931,799.5157490922342
0.8,10.94875931098143,799.6470873707952
0.801,10.952035066955732,799.7531610480593
0.802,10.956004309185973,799.8845245454934
0.803,10.959974921107074,800.0159020822198
0.804,10.963946903140606,800.1472936553364
0.805,10.967226939215774,800.2534048042619
0.806,10.971201423247381,800.3848215748653
0.807,10.975177278582699,800.5162523735789
0.808,10.978460478999173,800.6223910768721
0.809,10.982438838495318,800.7538470571917
0.81,10.986418570487182,800.8853170573165
0.811,10.990399675396908,801.0168010743226
0.812,10.993687164415114,801.1229771621123
0.813,10.997670776416106,801.2544863391881
0.814,11.001655762527966,801.3860095248066
0.815,11.005642123173157,801.5175467160309
0.816,11.008933905687572,801.6237601379719
0.817,11.012922776356833,801.7553224676434
0.818,11.016913022753384,801.8868987945463
0.819,11.020904645300089,802.0184891157337
0.82,11.024200726208788,802.1247398213093
0.821,11.028194861714686,802.2563552592342
0.822,11.032190374565682,802.3879846830348
0.823,11.036187265184962,802.5196280897514
0.824,11.039487649389473,802.6259160282675
0.825,11.043487055905437,802.757584529925
0.826,11.04748784138563,802.889267006056
0.827,11.050791407056181,802.9955823210984
0.828,11.054794710604,803.1272898759848
0.829,11.058799394312683,803.2590113968761
0.83,11.062805458605984,803.3907468807892
0.831,11.066113336102253,803.4970993401728
0.832,11.070121921404787,803.6288598808948
0.833,11.074131888489568,803.7606343761361
0.834,11.078143237780743,803.8924228229025
0.835,11.08145543201389,803.998812375455
0.836,11.085469305258218,804.1306258569955
0.837,11.089484561907527,804.2624532815233
0.838,11.093501202386335,804.3942946460337
0.839,11.096817718271025,804.5007212404067
0.84,11.100836885649224,804.6325876175671
0.841,11.104857438056488,804.7644679261374
0.842,11.10817714895896,804.8709217546676
0.843,11.112200230443076,805.0028270594623
0.844,11.116224698156493,805.1347462870671
0.845,11.120250552524325,805.2666794344542
0.846,11.123574593631037,805.3731702150656
0.847,11.127602980026063,805.5051283364023
0.848,11.131632754276763,805.6371003688886
0.849,11.135663916808573,805.7690863094842
0.85,11.138992293043767,805.8756139903453
0.851,11.143025990555453,806.0076248825276
0.852,11.147061077550479,806.1396496741507
0.853,11.151097554454656,806.2716883621637
0.854,11.15443027074607,806.3782528912672
0.855,11.158469285585145,806.5103165084155
0.856,11.162509691536535,806.6423940132488
0.857,11.165845616433362,806.7489856323176
0.858,11.169888562503553,806.8810880496173
0.859,11.173932900889978,807.0132043458724
0.86,11.177978632019043,807.1453345180098
0.861,11.181318905547458,807.2519628944319
0.862,11.18536717975439,807.3841179564304
0.863,11.189416847908856,807.5162868855463
0.864,11.193467910437587,807.6484696786933
0.865,11.196812537534868,807.7551347599763
0.866,11.200866146102888,807.8873424202912
0.867,11.20492115025106,808.0195639358385
0.868,11.208977550406422,808.1517993035179
0.869,11.212326536013329,808.2585010369903
0.87,11.21638548517174,808.3907612490558
0.871,11.220445831544193,808.523035304419
0.872,11.223798039379874,808.6297639818284
0.873,11.227860936945696,808.7620628646632
0.874,11.2319252329331,808.8943755819334
0.875,11.235990927769782,809.0267021305201
0.876,11.239347502713,809.1334673680725
0.877,11.243415751710854,809.2658187211939
0.878,11.247485400766498,809.3981838967343
0.879,11.251556450307984,809.5305628915619
0.88,11.254917397308972,809.6373646360967
0.881,11.258991003981766,809.7697684124329
0.882,11.263066012349848,809.9021859991225
0.883,11.267142422841603,810.0346173930204
0.884,11.270507746854118,810.1414555911997
0.885,11.27458671744965,810.2739117434915
0.886,11.278667091379313,810.4063816940238
0.887,11.282035651279534,810.5132466882645
0.888,11.286118587509714,810.6457413800297
0.889,11.29020292828519,810.7782498610408
0.89,11.294288674034936,810.9107721281316
0.891,11.297661619567034,811.0176734828046
0.892,11.3017499305938,811.1502204678566
0.893,11.305839647806998,811.2827812299589
0.894,11.309930771635896,811.4153557659301
0.895,11.313308107763012,811.522293427203
0.896,11.317401799847785,811.6548926577753
0.897,11.321496899761357,811.787505653151
0.898,11.324877481804029,811.8944700009746
0.899,11.328975152174882,812.0271076736079
0.9,11.333074231588377,812.1597591019532
0.901,11.337174720474431,812.2924242828085
0.902,11.340559701748877,812.3994248431619
0.903,11.344662764075078,812.5321146777578
0.904,11.348767237088605,812.6648182557356
0.905,11.352873121219753,812.7975355738815
0.906,11.356262506698553,812.9045722924387
0.907,11.360370967255005,813.0373142407166
0.908,11.364480840144815,813.1700699199988
0.909,11.368592125798548,813.3028393270572
0.91,11.371985920457746,813.409912149311
0.911,11.376099785524305,813.5427061628038
0.912,11.380215064571512,813.6755138948726
0.913,11.38361211886637,813.782613252569
0.914,11.387729979534218,813.9154455734803
0.915,11.391849255400135,814.0482916037411
0.916,11.395969946895327,814.1811513401032
0.917,11.399371419029581,814.2882867062474
0.918,11.403494695136933,814.4211710075953
0.919,11.407619388091934,814.554069005781
0.92,11.411745498326164,814.686980697544
0.921,11.415151393285168,814.7941520171289
0.922,11.419280091125382,814.9270882499311
0.923,11.423410207464123,815.0600381670093
0.924,11.426819372131245,815.1672359101439
0.925,11.43095207828848,815.3002103504863
0.926,11.435086204164287,815.433198465779
0.927,11.43922175019084,815.5662002527392
0.928,11.44263534635801,815.6734338531987
0.929,11.446773485200879,815.8064601393166
0.93,11.450913045415502,815.9395000877398
0.931,11.455054027434363,816.0725536951705
0.932,11.458472060096264,816.1798230974472
0.933,11.462615637931597,816.3129011798396
0.934,11.466760638793168,816.4459929118423
0.935,11.470907063113751,816.5790982901436
0.936,11.474329537268495,816.6864034385476
0.937,11.478478560408007,816.8195332675218
0.938,11.482629008229493,816.952676733361
0.939,11.486054765873146,817.0600081509377
0.94,11.490207814732402,817.1931760494216
0.941,11.494362289497275,817.3263575753078
0.942,11.498518190601182,817.4595527252648
0.943,11.501948398435003,817.5669197916588
0.944,11.506106903583138,817.7001393498125
0.945,11.510266836294909,817.833372522538
0.946,11.514428197004106,817.9666193064912
0.947,11.517862860035464,818.0740219655079
0.948,11.522026827797637,818.2072931331177
0.949,11.526192224782758,818.3405779024189
0.95,11.52963018141971,818.4480067163067
0.951,11.53379818768131,818.5813158510505
0.952,11.537967624392117,818.7146385779228
0.953,11.542138491986508,818.8479748935573
0.954,11.545580912534453,818.9554392018803
0.955,11.549754392418055,819.0887998582564
0.956,11.55392930441247,819.2221740937961
0.957,11.558105648952388,819.3555619051175
0.958,11.561552538427936,819.463061651174
0.959,11.565731498272108,819.5964737784444
0.96,11.569911891889983,819.7298994718622
0.961,11.573362085106362,819.8374252574606
0.962,11.57754509625658,819.9708752484245
0.963,11.581729542409391,820.1043387958729
0.964,11.585915424000039,820.2378158964007
0.965,11.589370094873482,820.3453770206612
0.966,11.59355859701552,820.478878393782
0.967,11.597748535825257,820.6123933102832
0.968,11.601939911738322,820.7459217667483
0.969,11.605399065294659,820.8535181724609
0.97,11.609593064780427,820.9870708764719
0.971,11.613788502600316,821.1206371107103
0.972,11.617250970051249,821.2282594396046
0.973,11.621449033676578,821.3618499027987
0.974,11.625648536867525,821.495453886456
0.975,11.62984948006033,821.6290713871371
0.976,11.633316438939529,821.7367288975236
0.977,11.637520010963065,821.8703706019521
0.978,11.641725024220868,822.0040258136019
0.979,11.645931479149512,822.1376945290212
0.98,11.64940293449204,822.2453871631795
0.981,11.653612021278992,822.3790800570442
0.982,11.657822550970193,822.5127864448399
0.983,11.66129733037948,822.6205048847826
0.984,11.665510494166321,822.7542354322441
0.985,11.669725102091519,822.8879794637709
0.986,11.673941154592221,823.0217369758873
0.987,11.677420439226104,823.1294904387498
0.988,11.681639128853982,823.2632720850673
0.989,11.685859264292441,823.3970672020715
0.99,11.69008084597892,823.5308757862729
0.991,11.693564640881528,823.6386642138194
0.992,11.697788862729027,823.7724969066634
0.993,11.702014532060554,823.9063430567638
0.994,11.705501661220449,824.0141571716555
0.995,11.709729972954912,824.1480274114284
0.996,11.713959733410128,824.2819110984904
0.997,11.718190943024181,824.4158082293294
0.998,11.721682591229936,824.5236572071585
0.999,11.72591644628469,824.6575784019476
1.0,11.730151751735933,824.7915130305082
1.001,11.734388508022096,824.9254610893156
1.002,11.737884680326932,825.0333448713294
1.003,11.742124085093844,825.1673169682704
1.004,11.746364941934237,825.3013024854131
1.005,11.749864458705103,825.4092118352849
1.006,11.754107966272786,825.5432213714021
1.007,11.758352927153254,825.67724431765
1.008,11.76259934178553,825.8112806704814
1.009,11.76610339144839,825.9192247218915
1.01,11.770352459851923,826.0532850677154
1.011,11.774602983247512,826.1873588100137
1.012,11.778854962074492,826.3214459452253
1.013,11.78236354969162,826.4294246389021
1.014,11.786618185336106,826.5635357410295
1.015,11.790874277653204,826.6976602259241
1.016,11.794386219963274,826.8056643669182
1.017,11.798644971348953,826.9398127993762
1.018,11.802905180649137,827.0739746044269
1.019,11.807166848303703,827.208149778484
1.02,11.810683337376622,827.3161884581938
1.021,11.814947667149983,827.4503875535738
1.022,11.819213456520584,827.5846000077486
1.023,11.823480705928686,827.71882581712
1.024,11.827001746835734,827.8268989757511
1.025,11.831271661415077,827.9611486801086
1.026,11.835543037275698,828.0954117294125
1.027,11.839067443120737,828.203510213765
1.028,11.843341486408258,828.3377971385099
1.029,11.847616992221536,828.4720973979225
1.03,11.851893961001435,828.6064109883822
1.031,11.855422927504764,828.7145438471944
1.032,11.85970256676793,828.8488812865924
1.033,11.863983670243096,828.9832320467194
1.034,11.867516008197656,829.0913901534923
1.035,11.871799784414662,829.2257647428911
1.036,11.876085026089777,829.360152642674
1.037,11.880371733664456,829.4945538491971
1.038,11.883908641111399,829.6027462253902
1.039,11.888198024488178,829.7371712345142
1.04,11.892488875011573,829.8716095399956
1.041,11.89678119312335,830.0060611381758
1.042,11.900322675148594,830.1142877231367
1.043,11.904617672125013,830.2487630971526
1.044,11.908914137937826,830.3832517534471
1.045,11.912459001688706,830.4915034630316
1.046,11.916758148629226,830.6260158752987
1.047,11.921058765654827,830.7605415593949
1.048,11.925360853207813,830.8950805116363
1.049,11.92891030038657,831.0033663240322
1.05,11.933215072133729,831.1379290053143
1.051,11.937521315657923,831.2725049442547
1.052,11.94182903140183,831.4070941371582
1.053,11.94538306710329,831.5154139911855
1.054,11.94969347011005,831.6500268860995
1.055,11.954005346587097,831.78465302445
1.056,11.957562774306494,831.8929978786938
1.057,11.961877340314013,832.0276476989982
1.058,11.966193381043068,832.162310752184
1.059,11.970510896936933,832.2969870345332
1.06,11.974072922043982,832.4053658235295
1.061,11.978393130540907,832.5400657606343
1.062,11.982714815454791,832.6747789163071
1.063,11.986280239122925,832.7831826259692
1.064,11.990604618910355,832.9179194162163
1.065,11.994930476367651,833.0526694144104
1.066,11.999257811938651,833.1874326168083
1.067,12.002827841869177,833.2958701537589
1.068,12.007157875390192,833.4306569633642
1.069,12.011489388278726,833.5654569665127
1.07,12.015822380978952,833.7002701594478
1.071,12.019397022281181,833.8087414616375
1.072,12.023732716010128,833.9435782343162
1.073,12.028069890805543,834.0784281860829
1.074,12.031647940990123,834.1869242827677
1.075,12.03598781908925,834.3217977938991
1.076,12.04032917951023,834.4566844733885
1.077,12.044672022697855,834.591584317457
1.078,12.048254693144177,834.700114070989
1.079,12.05260024271809,834.8350374467885
1.08,12.056947276315004,834.9699739763994
1.081,12.060533362205152,835.0785284437522
1.082,12.064883104466206,835.2134884845896
1.083,12.069234332007323,835.348461668443
1.084,12.073587045273834,835.4834479915077
1.085,12.077177760325394,835.5920360067224
1.086,12.081533185342494,835.7270458132102
1.087,12.08589009734299,835.8620687480748
1.088,12.09024849677251,835.9971048074971
1.089,12.093843846109108,836.1057263076481
1.09,12.098204960377911,836.240785822592
1.091,12.102567563334654,836.3758584512199
1.092,12.106166338465188,836.4845045372474
1.093,12.110531658543524,836.6196006006935
1.094,12.114898468569416,836.7547097669204
1.095,12.11926676898911,836.8898320320869
1.096,12.122870187319572,836.9985114931319
1.097,12.127241207953393,837.1336571650434
1.098,12.131613720241536,837.2688159249519
1.099,12.135220570945556,837.3775198900667
1.1,12.139595805733,837.5127020358915
1.101,12.14397253343599,837.647897258742
1.102,12.14835075450136,837.7831055547528
1.103,12.151962257329732,837.8918427843677
1.104,12.15634320399078,838.02707443805
1.105,12.160725645276308,838.162319153881
1.106,12.164340587064896,838.2710808053176
1.107,12.168725756234121,838.4063488578641
1.108,12.173112421290654,838.5416299615198
1.109,12.177500582681901,838.6769241123943
1.11,12.181120185528897,838.7857189172189
1.111,12.185511077904042,838.9210363763917
1.112,12.189903467877654,839.0563668717045
1.113,12.194297355897447,839.1917103992529
1.114,12.197921624946197,839.3005382933125
1.115,12.202318247052322,839.4359051006438
1.116,12.206716368469325,839.5712849290929
1.117,12.210344086867897,839.6801371145401
1.118,12.214744944663668,839.8155402016145
1.119,12.21914730303567,839.9509562986583
1.12,12.223551162432154,840.0863854017416
1.121,12.227183555981494,840.195270564365
1.122,12.231590154863026,840.3307228973856
1.123,12.235998256035334,840.4661882252589
1.124,12.239634105539148,840.5750975958789
1.125,12.244044948491782,840.7105861324044
1.126,12.24845729500215,840.8460876525659
1.127,12.25287114551911,840.9816021524096
1.128,12.256511679132146,841.090544387543
1.129,12.26092827453952,841.2260820671771
1.13,12.265346375221364,841.3616327152373
1.131,12.26899037140042,841.4705990745284
1.132,12.273411219270765,841.6061728809651
1.133,12.277833573684157,841.7417596445426
1.134,12.282257435089994,841.877359361282
1.135,12.28590612434619,841.9863584718203
1.136,12.29033273605442,842.1219813179005
1.137,12.29476085602459,842.2576171058168
1.138,12.299190484706452,842.3932658315774
1.139,12.302843872202613,842.5022976279695
1.14,12.30727625430296,842.6379694539346
1.141,12.311710146385396,842.7736542063782
1.142,12.315367006876265,842.8827099939796
1.143,12.319803654679694,843.0184178250114
1.144,12.32424181373628,843.154138571126
1.145,12.328681484496379,843.289872228308
1.146,12.332343052209913,843.3989605875408
1.147,12.336785481810892,843.5347172939998
1.148,12.341229424387322,843.6704869000889
1.149,12.34489447172485,843.7795991655361
1.15,12.34934117544749,843.9153917991575
1.151,12.353789393418243,844.0511973209435
1.152,12.358239126088028,844.1870157268539
1.153,12.361908889640333,844.2961604491027
1.154,12.366361386579989,844.432001853058
1.155,12.370815399492253,844.5678561296326
1.156,12.374488649304686,844.6770246726498
1.157,12.378945428794923,844.8129019253939
1.158,12.383403725532009,844.9487920392213
1.159,12.387863539967446,845.0846950100677
1.16,12.391541514996,845.193895894443
1.161,12.396004099136853,845.3298218117956
1.162,12.400468202251206,845.4657605745912
1.163,12.404149670182829,845.5749851938356
1.164,12.40861654531351,845.7109468811327
1.165,12.413084940693476,845.8469214022655
1.166,12.417554856774794,845.9829087531443
1.167,12.421241058933258,846.0921655976944
1.168,12.425713750162144,846.2281758432357
1.169,12.43018796336912,846.364198906877
1.17,12.433877665080393,846.4734793999437
1.171,12.438354655748608,846.6095253361117
1.172,12.442833169672324,846.7455840787038
1.173,12.447313207304147,846.8816556236045
1.174,12.451007652262154,846.9909682253065
1.175,12.45549047049022,847.1270626127177
1.176,12.459974813704735,847.2631697907215
1.177,12.46446068235857,847.3992897551865
1.178,12.46815987575599,847.5086343981679
1.179,12.47264852814327,847.6447771750262
1.18,12.477138707249106,847.7809327265885
1.181,12.480841410687916,847.8903008811631
1.182,12.485334375845207,848.0264792227756
1.183,12.489828869000982,848.1626703273058
1.184,12.494324890608716,848.2988741905983
1.185,12.498032351521372,848.4082742688121
1.186,12.50253116232149,848.5445008918587
1.187,12.507031502854376,848.6807402618397
1.188,12.5107424804755,848.7901637641174
1.189,12.515245612521573,848.9264258713793
1.19,12.51975027558189,849.0627007137168
1.191,12.524256470110517,849.198988286951
1.192,12.527972214249045,849.3084435946073
1.193,12.532481203435534,849.4447538746482
1.194,12.536991725372664,849.5810768736845
1.195,12.54071099289347,849.6905555174181
1.196,12.545224311812015,849.8269012006549
1.197,12.549739164764278,849.9632595909592
1.198,12.554255552204856,850.0996306841249
1.199,12.557979595295787,850.2091410143571
1.2,12.562498782866191,850.3455347610701
1.201,12.567019506208862,850.4819411986746
1.202,12.57074707936251,850.5914747765355
1.203,12.575270605161313,850.7279038449489
1.204,12.57979566801699,850.8643455922527
1.205,12.584322268384742,851.0008000142172
1.206,12.588054626170274,851.110365159072
1.207,12.592584032146295,851.2468421810125
1.208,12.59711497691985,851.3833318655701
1.209,12.600850871455197,851.4929201691447
1.21,12.60538462416609,851.6294324308084
1.211,12.609919916960697,851.7659573430163
1.212,12.614456750294766,851.9024949015134
1.213,12.61819743853287,852.0121146519543
1.214,12.622737082960112,852.1486747565443
1.215,12.627278269213894,852.2852474953096
1.216,12.631022500895527,852.394890315098
1.217,12.635566500574264,852.5314855769517
1.218,12.640112043367276,852.6680934608363
1.219,12.644659129730863,852.8047139624712
1.22,12.648408164195049,852.9143881083695
1.221,12.652958067143144,853.0510311018991
1.222,12.657509514950444,853.1876867009925
1.223,12.661262099558455,853.2973838264019
1.224,12.6658163662848,853.4340618942531
1.225,12.67037217915961,853.5707525554508
1.226,12.674929538639734,853.7074558056885
1.227,12.678686935119153,853.817184135826
1.228,12.683247116681592,853.9539098234472
1.229,12.687808846139543,854.0906480878508
1.23,12.691569799469638,854.2003993071966
1.231,12.696134353347134,854.3371599857117
1.232,12.700700456410992,854.4739332287199
1.233,12.705268109118597,854.6107190318894
1.234,12.709033883417828,854.7205013339487
1.235,12.713604363711944,854.8573095196739
1.236,12.718176394941572,854.9941302532301
1.237,12.72194573280484,855.1039353537278
1.238,12.726520593960913,855.240778446433
1.239,12.731097007344895,855.3776340746075
1.24,12.735674973414685,855.5145022338924
1.241,12.739449141353758,855.6243382944588
1.242,12.74402994052066,855.7612287811551
1.243,12.748612293666682,855.8981317865591
1.244,12.752390031889695,856.0079905543273
1.245,12.756975220475493,856.1449158636023
1.246,12.76156196433436,856.2818536791509
1.247,12.766150263924784,856.4188039965888
1.248,12.769932841339083,856.5286936011453
1.249,12.774523979543606,856.6656661905333
1.25,12.77911667477452,856.8026512693351
1.251,12.78290282919911,856.9125634893857
1.252,12.787498365389482,857.049570816461
1.253,12.792095459901761,857.1865906204438
1.254,12.796694113194954,857.3236228969233
1.255,12.80048511593515,857.4335658298459
1.256,12.805086613365779,857.5706203224946
1.257,12.809689670873714,857.7076872750914
1.258,12.81348425735699,857.8176527313294
1.259,12.818090161350426,857.9547418762841
1.26,12.822697626718192,858.091843468606
1.261,12.826495799806333,858.2018314088365
1.262,12.831106114008803,858.338955169647
1.263,12.835717990883284,858.4760913652143
1.264,12.840331430889613,858.6132399910912
1.265,12.844134465308521,858.7232584665051
1.266,12.848750757332734,858.8604292285044
1.267,12.853368613787381,858.9976124081604
1.268,12.857175241553046,859.1076532747131
1.269,12.861795952377438,859.2448585664849
1.27,12.866418228931474,859.3820762632287
1.271,12.871042071675488,859.5193063604702
1.272,12.87485356991749,859.6293776367422
1.273,12.879480270218101,859.7666298135497
1.274,12.884108538008809,859.9038943781285
1.275,12.887923636345885,860.0139879522136
1.276,12.89255476404775,860.1512745722159
1.277,12.897187460540456,860.288573567231
1.278,12.901821726284933,860.4258849327598
1.279,12.905641704252552,860.5360087904565
1.28,12.910278833098644,860.6733421786735
1.281,12.914917532498123,860.8106879246028
1.282,12.918741117315447,860.9208339863103
1.283,12.923382682173777,861.0582017306488
1.284,12.928025818887793,861.195581819868
1.285,12.932670527918917,861.3329742494416
1.286,12.936499001529633,861.4431504680084
1.287,12.941146579213704,861.5805648630701
1.288,12.945795730518029,861.7179915856104
1.289,12.949627817739417,861.8281899139097
1.29,12.954279840056566,861.9656385775208
1.291,12.958933437297787,862.1030995557055
1.292,12.963588609925099,862.2405728439117
1.293,12.967425595111381,862.3508012016741
1.294,12.9720836419492,862.4882963978438
1.295,12.976743265477781,862.6258038910851
1.296,12.980583871041924,862.7360542638203
1.297,12.985246371143555,862.8735836404708
1.298,12.989910449241261,863.0111253012125
1.299,12.994576105797627,863.1486792414684
1.3,12.998421618506686,863.2589595156221
1.301,13.003090154837386,863.3965353059922
1.302,13.007760270932883,863.5341233628508
1.303,13.0116094107933,863.6444255567396
1.304,13.01628240902833,863.7820354390196
1.305,13.020956988335012,863.9196575747343
1.306,13.02480975822573,864.029981647731
1.307,13.029487222038266,864.1676255841153
1.308,13.034166268229916,864.3052817608461
1.309,13.038846897264019,864.4429501733082
1.31,13.042704587393722,864.5533039641317
1.311,13.047388104140074,864.6909941437019
1.312,13.052073205037212,864.8286965458728
1.313,13.055934531979545,864.9390721198806
1.314,13.06062252295789,865.07679626427
1.315,13.06531209939603,865.2145326180979
1.316,13.07000326175778,865.3522811767215
1.317,13.0738695181397,865.4626863389315
1.318,13.078563573792653,865.6004566060245
1.319,13.083259216679064,865.738239064707
1.32,13.087129116662128,865.8486659136945
1.321,13.091827655211304,865.9864700558163
1.322,13.096527782304449,866.1242863762909
1.323,13.10122949840597,866.2621148704499
1.324,13.1051043370377,866.3725711773642
1.325,13.109808952015513,866.5104213210233
1.326,13.114515157313065,866.6482836250867
1.327,13.118393646340545,866.7587615218852
1.328,13.12310275288859,866.8966454502795
1.329,13.127813451068358,867.0345415257649
1.33,13.131695593379503,867.1450409711169
1.331,13.136409195185088,867.2829586457057
1.332,13.141124389935035,867.4208884540406
1.333,13.145841178094472,867.5588303914141
1.334,13.14972827218936,867.669359107907
1.335,13.154447967193233,867.8073226101758
1.336,13.159169256920077,867.9452982280943
1.337,13.163060011101981,868.0558483955566
1.338,13.167784210051163,868.1938455530012
1.339,13.172510005037461,868.3318548126755
1.34,13.177237396526587,868.469876169847
1.341,13.181133111721548,868.5804554765804
1.342,13.185863415655144,868.718498338879
1.343,13.190595317406538,868.8565532852099
1.344,13.194494699497893,868.9671539448386
1.345,13.199229516074283,869.1052303707876
1.346,13.203965931784088,869.2433188672721
1.347,13.20870394709357,869.3814194295326
1.348,13.212608299435514,869.4920490958996
1.349,13.217349232795655,869.6301711031895
1.35,13.222091767071895,869.7683051627133
1.351,13.225999793125656,869.8789560834131
1.352,13.23074524783569,870.0171115623167
1.353,13.235492304778925,870.1552790798811
1.354,13.239404007441227,870.2659512128735
1.355,13.244153987202456,870.4041401241071
1.356,13.248905570514637,870.5423410603978
1.357,13.253658757844768,870.6805540169464
1.358,13.257575443933128,870.79125496667
1.359,13.262331557311915,870.9294892820255
1.36,13.267089276027235,871.0677356039898
1.361,13.27100964554807,871.1784576667425
1.362,13.275770292698851,871.3167253216624
1.363,13.2805325465054,871.45500496951
1.364,13.285296407435197,871.5932966054585
1.365,13.289221769639505,871.7040473508008
1.366,13.293988562238953,871.8423602846518
1.367,13.298756963281706,871.9806851928774
1.368,13.302686015748431,872.0914569514945
1.369,13.307457350850184,872.2298031316283
1.37,13.31223029571596,872.3681612723789
1.371,13.316163041347888,872.4789540017211
1.372,13.320938922663132,872.6173333883257
1.373,13.325716415063704,872.7557247217563
1.374,13.330495519017896,872.8941279971482
1.375,13.33443327053688,873.004949216772
1.376,13.339215314179672,873.14337370269
1.377,13.343998970698237,873.2818101167336
1.378,13.347940422220763,873.3926522066226
1.379,13.352727020820955,873.5311098049956
1.38,13.357515233619733,873.6695793176272
1.381,13.362305061085856,873.8080607396241
1.382,13.36625152777247,873.9189311840323
1.383,13.371044300562845,874.0574337548377
1.384,13.375838689344198,874.1959482210957
1.385,13.379788862878591,874.3068394348146
1.386,13.384586199379743,874.4453750235404
1.387,13.389385153196155,874.583922493774
1.388,13.393339036487147,874.6948344337428
1.389,13.398140940420024,874.8334030000443
1.39,13.402944462993027,874.9719834338749
1.391,13.40774960467572,875.1105757303052
1.392,13.411708516362117,875.2215158301683
1.393,13.416516611408808,875.3601291868681
1.394,13.421326326890892,875.4987543921437
1.395,13.425288955186405,875.6097151165919
1.396,13.430101626431691,875.7483613555929
1.397,13.43491591943873,875.8870194291146
1.398,13.43888226725568,875.9980007347845
1.399,13.443699518426177,876.1366798154255
1.4,13.44851839268538,876.275370716499
1.401,13.453338890503552,876.4140734330332
1.402,13.45731027996335,876.5250827026038
1.403,13.462133739197434,876.6638063901823
1.404,13.466958823318295,876.8025418790894
1.405,13.470933939160311,876.9135716275055
1.406,13.475761987099887,877.052328060707
1.407,13.480591661254655,877.19109628107
1.408,13.485422962095416,877.3298762835959
1.409,13.489403128887897,877.4409338575546
1.41,13.494237396803245,877.5797347681051
1.411,13.49907329273384,877.7185474466071
1.412,13.503057192775028,877.8296253965324
1.413,13.507896058185532,877.9684589561647
1.414,13.512736552941158,878.107304269504
1.415,13.516724189149274,878.2184025515172
1.416,13.521567655791207,878.3572687190315
1.417,13.526412753108692,878.4961466259737
1.418,13.531259481573308,878.6350362673072
1.419,13.535252182006456,878.7461621765273
1.42,13.5401018856181,878.885072635485
1.421,13.544953221708184,879.0239948145114
