TimeMS,Acc,qDot
0.0,8.281048306174878,-0.3654077677251887
0.001,8.282513478963761,703.7363393631645
0.002,8.28397889165697,703.7896310502883
0.003,8.28544454428667,703.8429243090507
0.004,8.28691043688504,703.8962191387612
0.005,8.2883765694843,703.9495155387305
0.006,8.289842942116604,704.0028135082671
0.007,8.291309554814177,704.0561130466813
0.008,8.292776407609201,704.1094141532811
0.009,8.29424350053385,704.1627168273749
0.01,8.29571083362036,704.2160210682723
0.011,8.297178406900912,704.2693268752807
0.012,8.298646220407687,704.3226342477079
0.013,8.300114274172916,704.3759431848622
0.014,8.301582568228783,704.4292536860507
0.015,8.303051102607517,704.482565750581
0.016,8.30451987734131,704.5358793777604
0.017,8.305988892462356,704.5891945668941
0.018,8.307458148002896,704.6425113172905
0.019,8.308927643995112,704.6958296282548
0.02,8.310397380471246,704.7491494990938
0.021,8.311867357463498,704.8024709291127
0.022,8.313337575004072,704.8557939176169
0.023,8.314808033125212,704.9091184639124
0.024,8.316278731859116,704.9624445673036
0.025,8.317749671238028,705.0157722270961
0.026,8.31922085129416,705.0691014425945
0.027,8.320692272059723,705.1224322131022
0.028,8.322163933566971,705.1757645379244
0.029,8.323635835848112,705.2290984163645
0.03,8.325107978935373,705.2824338477257
0.031,8.326580362861003,705.3357708313127
0.032,8.328052987657216,705.389109366427
0.033,8.329525853356268,705.4424494523731
0.034,8.330998959990382,705.4957910884531
0.035,8.332472307591782,705.5491342739683
0.036,8.333945896192738,705.602479008223
0.037,8.335419725825462,705.6558252905176
0.038,8.33689379652222,705.7091731201547
0.039,8.338368108315251,705.7625224964354
0.04,8.339842661236778,705.8158734186605
0.041,8.341317455319079,705.869225886132
0.042,8.342792490594377,705.9225798981495
0.043,8.34426776709495,705.975935454015
0.044,8.345743284853032,706.0292925530279
0.045,8.347219043900868,706.0826511944874
0.046,8.348695044270737,706.1360113776949
0.047,8.350171285994874,706.1893731019487
0.048,8.351647769105561,706.2427363665495
0.049,8.353124493635047,706.2961011707957
0.05,8.354601459615575,706.3494675139851
0.051,8.356078667079439,706.4028353954177
0.052,8.357556116058891,706.4562048143916
0.053,8.35903380658618,706.5095757702037
0.054,8.360511738693603,706.5629482621536
0.055,8.361989912413405,706.6163222895374
0.056,8.363468327777882,706.669697851654
0.057,8.364946984819296,706.7230749477999
0.058,8.366425883569903,706.776453577271
0.059,8.367905024062011,706.8298337393657
0.06,8.369384406327862,706.8832154333787
0.061,8.370864030399773,706.9365986586075
0.062,8.372343896310007,706.989983414348
0.063,8.373824004090825,707.0433696998945
0.064,8.375304353774549,707.0967575145442
0.065,8.376784945393434,707.1501468575909
0.066,8.378265778979792,707.2035377283311
0.067,8.3797468545659,707.2569301260583
0.068,8.381228172184032,707.3103240500667
0.069,8.38270973186651,707.3637194996519
0.07,8.384191533645597,707.4171164741065
0.071,8.38567357755362,707.4705149727256
0.072,8.386625685307425,707.5015522432511
0.073,8.38810812669463,707.5549529656273
0.074,8.38959081029595,707.6083552102818
0.075,8.391073736143714,707.661758976509
0.076,8.392556904270203,707.7151642636006
0.077,8.394040314707715,707.7685710708491
0.078,8.395523967488579,707.8219793975474
0.079,8.397007862645076,707.8753892429861
0.08,8.398492000209538,707.928800606458
0.081,8.399976380214268,707.9822134872546
0.082,8.401461002691557,708.0356278846657
0.083,8.402945867673749,708.089043797984
0.084,8.404430975193126,708.1424612264984
0.085,8.405916325282037,708.1958801695012
0.086,8.407401917972788,708.2493006262813
0.087,8.408887753297673,708.3027225961285
0.088,8.41037383128905,708.356146078334
0.089,8.411860151979226,708.4095710721862
0.09,8.413346715400507,708.462997576974
0.091,8.414833521585251,708.5164255919872
0.092,8.416320570565752,708.5698551165138
0.093,8.41780786237437,708.6232861498435
0.094,8.41929539704342,708.6767186912635
0.095,8.420783174605221,708.7301527400617
0.096,8.422271195092128,708.7835882955268
0.097,8.423759458536448,708.8370253569451
0.098,8.425247964970556,708.8904639236055
0.099,8.426736714426765,708.9439039947939
0.1,8.428225706937404,708.997345569797
0.101,8.429714942534838,709.0507886479022
0.102,8.431204421251387,709.1042332283947
0.103,8.432694143119416,709.157679310562
0.104,8.434184108171266,709.2111268936891
0.105,8.43567431643926,709.2645759770614
0.106,8.43716476795578,709.3180265599647
0.107,8.438655462753143,709.3714786416836
0.108,8.440146400863732,709.4249322215038
0.109,8.441637582319887,709.4783872987092
0.11,8.443129007153946,709.531843872584
0.111,8.444620675398292,709.5853019424129
0.112,8.446112587085267,709.6387615074796
0.113,8.44760474224722,709.6922225670671
0.114,8.449097140916539,709.7456851204596
0.115,8.450589783125556,709.79914916694
0.116,8.452082668906666,709.8526147057916
0.117,8.453575798292214,709.9060817362964
0.118,8.455069171314555,709.9595502577369
0.119,8.45656278800609,710.0130202693958
0.12,8.458056648399156,710.0664917705542
0.121,8.45955075252615,710.1199647604946
0.122,8.461045100419433,710.1734392384981
0.123,8.462539692111367,710.2269152038455
0.124,8.464034527634354,710.2803926558187
0.125,8.46552960702074,710.333871593697
0.126,8.467024930302937,710.3873520167626
0.127,8.468520497513309,710.4408339242947
0.128,8.470016308684219,710.4943173155726
0.129,8.471512363848085,710.5478021898772
0.13,8.473008663037275,710.6012885464879
0.131,8.474505206284158,710.6547763846831
0.132,8.476001993621153,710.7082657037427
0.133,8.477499025080622,710.7617565029443
0.134,8.47899630069498,710.8152487815681
0.135,8.480493820496607,710.8687425388911
0.136,8.481991584517884,710.9222377741911
0.137,8.483489592791233,710.975734486747
0.138,8.484451482768508,711.0067591314947
0.139,8.485949891921669,711.0602579856492
0.14,8.487448545412361,711.1137583151327
0.141,8.48894744327297,711.1672601192217
0.142,8.490446585535883,711.220763397192
0.143,8.49194597223353,711.2742681483206
0.144,8.493445603398305,711.3277743718838
0.145,8.494945479062595,711.3812820671567
0.146,8.496445599258847,711.4347912334165
0.147,8.497945964019427,711.4883018699363
0.148,8.499446573376787,711.5418139759937
0.149,8.50094742736332,711.5953275508623
0.15,8.502448526011422,711.6488425938163
0.151,8.503949869353544,711.7023591041312
0.152,8.505451457422069,711.7558770810805
0.153,8.506953290249443,711.8093965239384
0.154,8.508455367868075,711.8629174319788
0.155,8.50995769031037,711.9164398044744
0.156,8.51146025760878,711.9699636406995
0.157,8.512963069795699,712.0234889399254
0.158,8.514466126903582,712.0770157014265
0.159,8.51596942896484,712.1305439244742
0.16,8.51747297601189,712.1840736083406
0.161,8.51897676807719,712.237604752299
0.162,8.520480805193142,712.2911373556194
0.163,8.521985087392208,712.3446714175747
0.164,8.523489614706804,712.3982069374352
0.165,8.524994387169356,712.4517439144715
0.166,8.52649940481233,712.5052823479557
0.167,8.528004667668148,712.5588222371574
0.168,8.529510175769238,712.6123635813467
0.169,8.531015929148065,712.6659063797939
0.17,8.53252192783705,712.7194506317685
0.171,8.534028171868664,712.7729963365406
0.172,8.535534661275339,712.826543493379
0.173,8.537041396089505,712.8800921015525
0.174,8.538548376343643,712.9336421603302
0.175,8.540055602070172,712.98719366898
0.176,8.541563073301575,713.0407466267711
0.177,8.543070790070288,713.0943010329713
0.178,8.544578752408754,713.1478568868472
0.179,8.546086960349456,713.201414187668
0.18,8.54759541392482,713.2549729346995
0.181,8.549104113167338,713.3085331272098
0.182,8.550613058109457,713.3620947644652
0.183,8.55212224878362,713.4156578457317
0.184,8.553631685222317,713.4692223702768
0.185,8.555141367457994,713.5227883373652
0.186,8.556651295523135,713.5763557462642
0.187,8.558161469450203,713.6299245962382
0.188,8.559671889271645,713.6834948865524
0.189,8.561182555019963,713.7370666164729
0.19,8.562693466727612,713.7906397852635
0.191,8.564204624427058,713.8442143921886
0.192,8.565716028150796,713.8977904365137
0.193,8.567227677931278,713.9513679175016
0.194,8.56873957380101,714.0049468344173
0.195,8.570251715792454,714.0585271865235
0.196,8.571764103938081,714.1121089730831
0.197,8.573276738270396,714.1656921933603
0.198,8.574789618821857,714.219276846617
0.199,8.575760610744425,714.2502868661567
0.2,8.577273895324234,714.3038735835302
0.201,8.57878742620888,714.357461731917
0.202,8.580301203430833,714.4110513105787
0.203,8.581815227022622,714.4646423187785
0.204,8.583329497016711,714.5182347557766
0.205,8.584844013445585,714.5718286208338
0.206,8.586358776341765,714.6254239132122
0.207,8.587873785737717,714.6790206321714
0.208,8.589389041665969,714.7326187769725
0.209,8.590904544159006,714.7862183468757
0.21,8.592420293249305,714.8398193411399
0.211,8.593936288969402,714.8934217590263
0.212,8.59545253135177,714.947025599793
0.213,8.596969020428944,715.0006308627002
0.214,8.598485756233414,715.0542375470064
0.215,8.600002738797663,715.1078456519696
0.216,8.601519968154244,715.1614551768498
0.217,8.603037444335625,715.2150661209033
0.218,8.60455516737435,715.2686784833899
0.219,8.606073137302916,715.3222922635663
0.22,8.607591354153826,715.3759074606894
0.221,8.609109817959615,715.4295240740175
0.222,8.610628528752777,715.4831421028064
0.223,8.612147486565862,715.5367615463143
0.224,8.613666691431364,715.5903824037964
0.225,8.6151861433818,715.6440046745089
0.226,8.616705842449717,715.6976283577087
0.227,8.618225788667619,715.751253452651
0.228,8.619745982068023,715.8048799585906
0.229,8.621266422683485,715.8585078747836
0.23,8.622787110546495,715.9121372004843
0.231,8.62430804568962,715.965767934948
0.232,8.625829228145367,716.0194000774288
0.233,8.62735065794626,716.0730336271804
0.234,8.628872335124859,716.126668583458
0.235,8.630394259713672,716.1803049455141
0.236,8.631916431745257,716.2339427126029
0.237,8.633438851252142,716.2875818839775
0.238,8.634961518266847,716.3412224588899
0.239,8.636484432821945,716.3948644365939
0.24,8.638007594949945,716.4485078163412
0.241,8.639531004683422,716.502152597385
0.242,8.6410546620549,716.5557987789767
0.243,8.642578567096916,716.6094463603675
0.244,8.644102719842047,716.6630953408098
0.245,8.64562712032282,716.7167457195544
0.246,8.647151768571772,716.7703974958514
0.247,8.648676664621481,716.8240506689526
0.248,8.650201808504475,716.8777052381076
0.249,8.651727200253335,716.931361202568
0.25,8.653252839900597,716.9850185615825
0.251,8.65477872747881,717.0386773144007
0.252,8.656304863020553,717.092337460273
0.253,8.65783124655836,717.1459989984473
0.254,8.659357878124823,717.199661928174
0.255,8.660884757752486,717.2533262487013
0.256,8.661864307365708,717.2843199934158
0.257,8.663391593968058,717.337986304298
0.258,8.664919128717498,717.3916540039784
0.259,8.666446911646572,717.4453230917029
0.26,8.667974942787836,717.498993566719
0.261,8.66950322217389,717.5526654282752
0.262,8.671031749837272,717.6063386756174
0.263,8.672560525810587,717.6600133079933
0.264,8.67408955012639,717.7136893246492
0.265,8.675618822817242,717.7673667248303
0.266,8.67714834391575,717.8210455077842
0.267,8.678678113454456,717.8747256727553
0.268,8.680208131465976,717.9284072189905
0.269,8.681738397982873,717.9820901457343
0.27,8.683268913037708,718.0357744522308
0.271,8.684799676663097,718.0894601377267
0.272,8.686330688891598,718.1431472014651
0.273,8.687861949755822,718.1968356426913
0.274,8.689393459288338,718.2505254606488
0.275,8.690925217521723,718.3042166545806
0.276,8.692457224488596,718.3579092237314
0.277,8.693989480221513,718.4116031673435
0.278,8.6955219847531,718.4652984846609
0.279,8.697054738115934,718.5189951749261
0.28,8.6985877403426,718.5726932373808
0.281,8.700120991465715,718.6263926712684
0.282,8.701654491517864,718.6800934758302
0.283,8.703188240531633,718.7337956503078
0.284,8.70472223853965,718.7874991939434
0.285,8.706256485574487,718.8412041059771
0.286,8.707790981668772,718.8949103856515
0.287,8.7093257268551,718.9486180322065
0.288,8.710860721166059,719.0023270448818
0.289,8.712395964634283,719.0560374229193
0.29,8.713931457292352,719.1097491655571
0.291,8.715467199172902,719.1634622720371
0.292,8.717003190308533,719.2171767415975
0.293,8.71853943073184,719.270892573477
0.294,8.720075920475464,719.324609766916
0.295,8.721612659571989,719.3783283211517
0.296,8.723149648054061,719.4320482354242
0.297,8.724686885954286,719.4857695089711
0.298,8.726224373305259,719.5394921410292
0.299,8.727762110139635,719.5932161308378
0.3,8.729300096490004,719.6469414776335
0.301,8.730838332389016,719.700668180654
0.302,8.73237681786928,719.7543962391361
0.303,8.733915552963408,719.8081256523159
0.304,8.735454537704053,719.8618564194311
0.305,8.736993772123828,719.915588539717
0.306,8.738533256255344,719.9693220124094
0.307,8.740072990131267,720.023056836745
0.308,8.741612973784191,720.0767930119576
0.309,8.742600525227473,720.1077693276666
0.31,8.744140918597855,720.1615074234704
0.311,8.745681561831297,720.2152468681139
0.312,8.747222454960417,720.2689876608305
0.313,8.74876359801788,720.322729800856
0.314,8.750304991036304,720.3764732874233
0.315,8.751846634048349,720.4302181197672
0.316,8.753388527086642,720.4839642971207
0.317,8.754930670183816,720.5377118187167
0.318,8.756473063372539,720.5914606837889
0.319,8.758015706685445,720.6452108915697
0.32,8.759558600155156,720.6989624412909
0.321,8.761101743814358,720.7527153321863
0.322,8.762645137695662,720.8064695634862
0.323,8.764188781831756,720.8602251344239
0.324,8.765732676255267,720.9139820442299
0.325,8.76727682099884,720.9677402921351
0.326,8.768821216095153,721.0214998773721
0.327,8.770365861576833,721.0752607991695
0.328,8.771910757476569,721.1290230567598
0.329,8.773455903826992,721.182786649372
0.33,8.775001300660762,721.236551576236
0.331,8.776546948010557,721.2903178365822
0.332,8.778092845909008,721.3440854296392
0.333,8.779638994388812,721.3978543546373
0.334,8.781185393482616,721.4516246108051
0.335,8.782732043223067,721.5053961973703
0.336,8.784278943642866,721.5591691135626
0.337,8.785826094774645,721.612943358609
0.338,8.787373496651105,721.6667189317387
0.339,8.788921149304905,721.7204958321787
0.34,8.79046905276869,721.7742740591561
0.341,8.79201720707517,721.8280536118989
0.342,8.793565612257003,721.8818344896335
0.343,8.795114268346849,721.9356166915859
0.344,8.796663175377411,721.989400216984
0.345,8.79821233338134,722.0431850650525
0.346,8.799761742391341,722.0969712350188
0.347,8.801311402440081,722.1507587261075
0.348,8.802861313560225,722.2045475375435
0.349,8.804411475784484,722.2583376685533
0.35,8.805961889145507,722.3121291183602
0.351,8.807512553676021,722.3659218861907
0.352,8.809063469408688,722.4197159712681
0.353,8.81061463637618,722.4735113728157
0.354,8.812166054611216,722.5273080900589
0.355,8.81371772414646,722.5811061222204
0.356,8.815269645014633,722.6349054685244
0.357,8.8168218172484,722.6887061281928
0.358,8.81837424088045,722.742508100449
0.359,8.819926915943505,722.7963113845158
0.36,8.820922209179708,722.8272688118949
0.361,8.822475296602457,722.8810739483239
0.362,8.824028635542373,722.9348803944906
0.363,8.825582226032187,722.9886881496174
0.364,8.827136068104572,723.0424972129244
0.365,8.828690161792254,723.0963075836344
0.366,8.830244507127926,723.1501192609675
0.367,8.831799104144268,723.2039322441434
0.368,8.833353952874024,723.257746532384
0.369,8.834909053349865,723.3115621249078
0.37,8.836464405604529,723.3653790209366
0.371,8.838020009670712,723.419197219689
0.372,8.839575865581107,723.4730167203838
0.373,8.841131973368455,723.5268375222413
0.374,8.842688333065452,723.5806596244797
0.375,8.844244944704796,723.6344830263167
0.376,8.845801808319234,723.6883077269723
0.377,8.84735892394145,723.7421337256634
0.378,8.848916291604189,723.7959610216085
0.379,8.850473911340158,723.849789614025
0.38,8.852031783182058,723.9036195021296
0.381,8.853589907162641,723.9574506851401
0.382,8.855148283314598,724.0112831622724
0.383,8.856706911670681,724.0651169327443
0.384,8.8582657922636,724.1189519957716
0.385,8.859824925126068,724.1727883505691
0.386,8.86138431029084,724.2266259963546
0.387,8.86294394779061,724.2804649323422
0.388,8.86450383765814,724.3343051577477
0.389,8.866063979926142,724.3881466717861
0.39,8.867624374627336,724.4419894736714
0.391,8.869185021794483,724.4958335626192
0.392,8.870745921460282,724.5496789378424
0.393,8.872307073657502,724.6035255985568
0.394,8.873868478418867,724.6573735439748
0.395,8.875430135777092,724.7112227733097
0.396,8.87699204576495,724.7650732857755
0.397,8.878554208415164,724.8189250805849
0.398,8.88011662376046,724.8727781569497
0.399,8.881679291833608,724.9266325140837
0.4,8.883242212667325,724.9804881511983
0.401,8.884805386294383,725.0343450675061
0.402,8.88636881274751,725.0882032622184
0.403,8.887932492059438,725.1420627345454
0.404,8.889496424262946,725.1959234836999
0.405,8.891060609390749,725.2497855088913
0.406,8.89262504747563,725.303648809332
0.407,8.894189738550327,725.3575133842313
0.408,8.895192354212446,725.3884511110753
0.409,8.89675746013559,725.4423174731444
0.41,8.898322819134897,725.4961851075684
0.411,8.899888431243104,725.5500540135557
0.412,8.901454296492956,725.6039241903156
0.413,8.903020414917236,725.6577956370576
0.414,8.904586786548675,725.7116683529892
0.415,8.906153411420064,725.7655423373205
0.416,8.907720289564145,725.8194175892584
0.417,8.90928742101367,725.8732941080103
0.418,8.910854805801426,725.9271718927856
0.419,8.912422443960153,725.98105094279
0.42,8.913990335522648,726.034931257232
0.421,8.915558480521653,726.0888128353174
0.422,8.91712687898993,726.142695676253
0.423,8.918695530960276,726.1965797792457
0.424,8.920264436465427,726.2504651435006
0.425,8.921833595538187,726.3043517682244
0.426,8.923403008211313,726.3582396526224
0.427,8.924972674517564,726.4121287958993
0.428,8.926542594489746,726.4660191972617
0.429,8.928112768160602,726.5199108559123
0.43,8.929683195562939,726.5738037710576
0.431,8.93125387672952,726.6276979419009
0.432,8.932824811693111,726.6815933676457
0.433,8.934396000486522,726.7354900474971
0.434,8.935967443142518,726.7893879806578
0.435,8.93753913969387,726.8432871663306
0.436,8.939111090173384,726.8971876037193
0.437,8.940683294613821,726.9510892920263
0.438,8.942255753047997,727.0049922304546
0.439,8.943828465508682,727.0588964182056
0.44,8.945401432028648,727.112801854481
0.441,8.946974652640712,727.1667085384836
0.442,8.94854812737764,727.2206164694136
0.443,8.950121856272252,727.2745256464735
0.444,8.951695839357324,727.3284360688637
0.445,8.953270076665637,727.3823477357842
0.446,8.954844568230014,727.4362606464363
0.447,8.956419314083218,727.4901748000192
0.448,8.957994314258078,727.5440901957336
0.449,8.959569568787382,727.5980068327791
0.45,8.961145077703904,727.6519247103537
0.451,8.962720841040484,727.7058438276584
0.452,8.964296858829888,727.7597641838905
0.453,8.96587313110495,727.81368577825
0.454,8.96688279740002,727.844602854018
0.455,8.968459486910376,727.8985261721716
0.456,8.97003643099281,727.9524507263154
0.457,8.971613629680164,728.0063765156485
0.458,8.973191083005231,728.0603035393675
0.459,8.974768791000805,728.1142317966693
0.46,8.976346753699724,728.1681612867511
0.461,8.977924971134769,728.2220920088091
0.462,8.979503443338787,728.2760239620409
0.463,8.98108217034457,728.3299571456413
0.464,8.982661152184917,728.383891558806
0.465,8.984240388892676,728.4378272007317
0.466,8.98581988050063,728.4917640706122
0.467,8.987399627041627,728.5457021676442
0.468,8.98897962854847,728.5996414910213
0.469,8.990559885053967,728.6535820399381
0.47,8.992140396590965,728.7075238135892
0.471,8.993721163192271,728.7614668111688
0.472,8.995302184890695,728.8154110318698
0.473,8.996883461719088,728.8693564748867
0.474,8.998464993710245,728.9233031394116
0.475,9.000046780897026,728.9772510246387
0.476,9.001628823312235,729.0312001297602
0.477,9.003211120988691,729.0851504539677
0.478,9.004793673959252,729.1391019964549
0.479,9.00637648225672,729.1930547564122
0.48,9.00795954591395,729.2470087330323
0.481,9.009542864963763,729.3009639255064
0.482,9.011126439438975,729.3549203330247
0.483,9.012710269372459,729.4088779547795
0.484,9.014294354797007,729.4628367899601
0.485,9.015878695745496,729.516796837758
0.486,9.01746329225074,729.5707580973626
0.487,9.01904814434557,729.6247205679633
0.488,9.020633252062852,729.678684248751
0.489,9.022218615435413,729.7326491389141
0.49,9.02380423449608,729.7866152376413
0.491,9.025390109277724,729.8405825441224
0.492,9.026976239813159,729.894551057545
0.493,9.02856262613526,729.9485207770978
0.494,9.03014926827686,730.0024917019689
0.495,9.031736166270786,730.0564638313455
0.496,9.033323320149924,730.110437164416
0.497,9.034910729947086,730.1644117003665
0.498,9.035927170410357,730.1953073812587
0.499,9.037514999727152,730.2492835795549
0.5,9.039103085048557,730.3032609785661
0.501,9.040691426407404,730.3572395774777
0.502,9.042280023836582,730.4112193754772
0.503,9.043868877368919,730.4652003717493
0.504,9.045457987037294,730.5191825654804
0.505,9.047047352874552,730.573165955855
0.506,9.048636974913533,730.6271505420577
0.507,9.050226853187132,730.6811363232742
0.508,9.051816987728188,730.7351232986886
0.509,9.053407378569549,730.7891114674841
0.51,9.054998025744105,730.8431008288462
0.511,9.056588929284695,730.897091381957
0.512,9.058180089224205,730.9510831260012
0.513,9.059771505595492,731.0050760601612
0.514,9.061363178431398,731.0590701836193
0.515,9.062955107764829,731.1130654955597
0.516,9.064547293628616,731.1670619951625
0.517,9.066139736055664,731.2210596816121
0.518,9.06773243507883,731.2750585540895
0.519,9.069325390730965,731.329058611775
0.52,9.07091860304497,731.3830598538523
0.521,9.072512072053687,731.4370622794995
0.522,9.074105797790027,731.4910658878999
0.523,9.075699780286847,731.5450706782332
0.524,9.077294019577007,731.5990766496785
0.525,9.07888851569341,731.6530838014173
0.526,9.080483268668928,731.707092132629
0.527,9.082078278536418,731.7611016424919
0.528,9.083673545328793,731.8151123301864
0.529,9.085269069078906,731.8691241948907
0.53,9.086864849819666,731.9231372357845
0.531,9.088460887583945,731.9771514520455
0.532,9.090057182404601,732.0311668428508
0.533,9.091653734314562,732.0851834073803
0.534,9.093250543346679,732.1392011448098
0.535,9.094847609533868,732.1932200543183
0.536,9.096444932909005,732.2472401350817
0.537,9.098042513504959,732.3012613862766
0.538,9.099640351354653,732.3552838070804
0.539,9.101238446490946,732.4093073966687
0.54,9.102836798946766,732.4633321542186
0.541,9.10385988895943,732.4942053580736
0.542,9.105458663168637,732.5482317171206
0.543,9.107057694784004,732.6022592419329
0.544,9.108656983838463,732.6562879316867
0.545,9.110256530364888,732.7103177855562
0.546,9.111856334396164,732.7643488027154
0.547,9.113456395965223,732.8183809823397
0.548,9.115056715104927,732.8724143236018
0.549,9.116657291848217,732.926448825677
0.55,9.118258126227966,732.980484487738
0.551,9.119859218277066,733.0345213089571
0.552,9.121460568028455,733.0885592885089
0.553,9.123062175515,733.1425984255645
0.554,9.124664040769645,733.1966387192979
0.555,9.126266163825274,733.2506801688805
0.556,9.12786854471478,733.3047227734837
0.557,9.129471183471102,733.3587665322802
0.558,9.131074080127117,733.41281144444
0.559,9.13267723471577,733.4668575091362
0.56,9.13428064726995,733.5209047255379
0.561,9.135884317822558,733.5749530928159
0.562,9.137488246406539,733.6290026101416
0.563,9.139092433054786,733.6830532766843
0.564,9.140696877800199,733.7371050916129
0.565,9.142301580675728,733.791158054099
0.566,9.143906541714257,733.8452121633098
0.567,9.145511760948732,733.8992674184159
0.568,9.147117238412061,733.9533238185853
0.569,9.14872297413714,734.0073813629857
0.57,9.150328968156932,734.0614400507872
0.571,9.151935220504315,734.1154998811556
0.572,9.153541731212247,734.1695608532602
0.573,9.155148500313638,734.223622966268
0.574,9.156755527841392,734.2776862193451
0.575,9.158362813828468,734.3317506116599
0.576,9.15997035830776,734.385816142378
0.577,9.161578161312228,734.4398828106665
0.578,9.16318622287478,734.4939506156911
0.579,9.164794543028329,734.548019556617
0.58,9.16640312180584,734.6020896326112
0.581,9.16743242057236,734.6329405207367
0.582,9.169041423181268,734.6870121409393
0.583,9.170650684500856,734.7410848939858
0.584,9.1722602045641,734.7951587790423
0.585,9.173869983403893,734.8492337952721
0.586,9.175480021053207,734.9033099418402
0.587,9.177090317544959,734.9573872179097
0.588,9.178700872912069,735.0114656226439
0.589,9.18031168718751,735.065545155207
0.59,9.181922760404184,735.1196258147606
0.591,9.183534092595062,735.1737076004689
0.592,9.185145683793072,735.2277905114942
0.593,9.186757534031136,735.2818745469972
0.594,9.18836964334223,735.3359597061415
0.595,9.18998201175926,735.3900459880873
0.596,9.191594639315209,735.4441333919978
0.597,9.193207526043,735.4982219170329
0.598,9.194820671975567,735.5523115623531
0.599,9.196434077145884,735.6064023271203
0.6,9.198047741586887,735.6604942104944
0.601,9.1996616653315,735.7145872116344
0.602,9.201275848412715,735.7686813297015
0.603,9.20289029086344,735.8227765638541
0.604,9.204504992716666,735.8768729132527
0.605,9.206119954005324,735.9309703770556
0.606,9.20773517476235,735.985068954421
0.607,9.209350655020733,736.0391686445083
0.608,9.210966394813392,736.0932694464751
0.609,9.212582394173317,736.1473713594803
0.61,9.21419865313345,736.2014743826808
0.611,9.215815171726723,736.2555785152332
0.612,9.217431949986137,736.3096837562965
0.613,9.21904898794461,736.3637901050258
0.614,9.220666285635144,736.4178975605795
0.615,9.222283843090676,736.4720061221128
0.616,9.223901660344147,736.5261157887812
0.617,9.225519737428558,736.5802265597418
0.618,9.22713807437684,736.6343384341488
0.619,9.22875667122199,736.6884514111593
0.62,9.230375527996955,736.7425654899271
0.621,9.231411061521461,736.7733926919651
0.622,9.233030344207005,736.8275082569536
0.623,9.234649886909223,736.8816249214499
0.624,9.236269689661059,736.9357426846068
0.625,9.237889752495473,736.9898615455782
0.626,9.239510075445464,737.0439815035189
0.627,9.241130658543971,737.0981025575805
0.628,9.242751501823998,737.1522247069173
0.629,9.244372605318503,737.2063479506813
0.63,9.245993969060436,737.2604722880241
0.631,9.247615593082806,737.3145977180994
0.632,9.24923747741856,737.3687242400583
0.633,9.250859622100704,737.4228518530532
0.634,9.252482027162195,737.4769805562344
0.635,9.254104692635996,737.5311103487528
0.636,9.255727618555118,737.5852412297606
0.637,9.257350804952528,737.6393731984082
0.638,9.258974251861185,737.6935062538444
0.639,9.2605979593141,737.7476403952205
0.64,9.262221927344225,737.8017756216858
0.641,9.263846155984574,737.8559119323903
0.642,9.265470645268119,737.9100493264829
0.643,9.267095395227816,737.9641878031117
0.644,9.268720405896698,738.0183273614272
0.645,9.270345677307704,738.0724680005757
0.646,9.271971209493861,738.1266097197074
0.647,9.273597002488138,738.1807525179694
0.648,9.275223056323508,738.2348963945084
0.649,9.27684937103299,738.2890413484729
0.65,9.27847594664954,738.3431873790089
0.651,9.280102783206186,738.3973344852645
0.652,9.281729880735902,738.4514826663859
0.653,9.283357239271663,738.5056319215183
0.654,9.284984858846494,738.5597822498094
0.655,9.286612739493373,738.6139336504037
0.656,9.288240881245276,738.6680861224464
0.657,9.289869284135236,738.7222396650839
0.658,9.291497948196213,738.7763942774599
0.659,9.29253942588891,738.8071976964477
0.66,9.29416851783574,738.8613537393325
0.661,9.29579787104052,738.9155108496798
0.662,9.297427485536227,738.9696690266322
0.663,9.299057361355898,739.0238282693351
0.664,9.300687498532502,739.077988576931
0.665,9.302317897099071,739.1321499485638
0.666,9.303948557088589,739.1863123833759
0.667,9.305579478534048,739.2404758805093
0.668,9.307210661468478,739.2946404391074
0.669,9.308842105924871,739.3488060583118
0.67,9.310473811936216,739.4029727372636
0.671,9.312105779535555,739.4571404751059
0.672,9.313738008755857,739.5113092709782
0.673,9.315370499630168,739.565479124023
0.674,9.317003252191476,739.6196500333809
0.675,9.31863626647278,739.6738219981911
0.676,9.320269542507113,739.7279950175948
0.677,9.321903080327463,739.7821690907315
0.678,9.323536879966872,739.8363442167414
0.679,9.325170941458335,739.8905203947636
0.68,9.326805264834844,739.9446976239362
0.681,9.328439850129456,739.9988759033996
0.682,9.330074697375144,740.0530552322913
0.683,9.331709806604966,740.1072356097505
0.684,9.333345177851916,740.1614170349148
0.685,9.334980811148995,740.2155995069213
0.686,9.336616706529254,740.2697830249086
0.687,9.33825286402568,740.3239675880129
0.688,9.339889283671324,740.3781531953721
0.689,9.341525965499192,740.4323398461228
0.69,9.34316290954229,740.4865275394
0.691,9.34480011583367,740.5407162743415
0.692,9.346437584406337,740.5949060500828
0.693,9.348075315293304,740.6490968657589
0.694,9.34971330852762,740.703288720506
0.695,9.351351564142279,740.7574816134573
0.696,9.352990082170345,740.8116755437503
0.697,9.354037527339687,740.8424539177447
0.698,9.35567647522962,740.896649222196
0.699,9.357315685619904,740.9508455616831
0.7,9.358955158543596,741.0050429353414
0.701,9.360594894033694,741.0592413423029
0.702,9.362234892123263,741.1134407817025
0.703,9.363875152845317,741.1676412526725
0.704,9.365515676232869,741.2218427543451
0.705,9.367156462318984,741.2760452858538
0.706,9.368797511136677,741.3302488463298
0.707,9.370438822718969,741.3844534349051
0.708,9.372080397098925,741.4386590507123
0.709,9.373722234309545,741.4928656928813
0.71,9.375364334383901,741.5470733605448
0.711,9.377006697355013,741.601282052833
0.712,9.3786493232559,741.6554917688753
0.713,9.380292212119631,741.7097025078037
0.714,9.381935363979215,741.7639142687469
0.715,9.383578778867724,741.8181270508362
0.716,9.38522245681818,741.8723408532001
0.717,9.386866397863608,741.9265556749668
0.718,9.388510602037082,741.980771515267
0.719,9.39015506937161,742.034988373228
0.72,9.391799799900273,742.0892062479793
0.721,9.393444793656093,742.1434251386488
0.722,9.395090050672101,742.1976450443633
0.723,9.396735570981374,742.2518659642518
0.724,9.398381354616925,742.3060878974403
0.725,9.40002740161183,742.360310843057
0.726,9.401673711999127,742.4145348002282
0.727,9.403320285811839,742.4687597680795
0.728,9.404967123083056,742.522985745739
0.729,9.406614223845803,742.5772127323313
0.73,9.408261588133124,742.6314407269817
0.731,9.409909215978091,742.6856697288168
0.732,9.411557107413726,742.7398997369606
0.733,9.412610224370809,742.770653211127
0.734,9.414258547539943,742.8248845394817
0.735,9.415907134386797,742.8791168718169
0.736,9.417555984944414,742.9333502072556
0.737,9.419205099245877,742.987584544923
0.738,9.420854477324209,743.0418198839419
0.739,9.422504119212501,743.0960562234367
0.74,9.424154024943793,743.1502935625296
0.741,9.425804194551123,743.2045319003429
0.742,9.427454628067588,743.2587712360006
0.743,9.429105325526223,743.3130115686237
0.744,9.430756286960074,743.3672528973339
0.745,9.43240751240224,743.4214952212546
0.746,9.434059001885736,743.4757385395053
0.747,9.435710755443667,743.5299828512084
0.748,9.43736277310907,743.5842281554842
0.749,9.439015054915002,743.638474451453
0.75,9.440667600894553,743.6927217382363
0.751,9.442320411080754,743.7469700149529
0.752,9.443973485506705,743.8012192807234
0.753,9.445626824205451,743.8554695346673
0.754,9.447280427210044,743.9097207759029
0.755,9.44893429455359,743.9639730035506
0.756,9.450588426269112,744.0182262167274
0.757,9.452242822389719,744.0724804145534
0.758,9.45389748294846,744.1267355961459
0.759,9.455552407978388,744.1809917606221
0.76,9.457207597512609,744.2352489071011
0.761,9.458863051584157,744.289507034699
0.762,9.460518770226138,744.3437661425337
0.763,9.46217475347161,744.3980262297218
0.764,9.463831001353624,744.4522872953788
0.765,9.46548751390529,744.5065493386223
0.766,9.467144291159661,744.5608123585678
0.767,9.468801333149804,744.6150763543301
0.768,9.469859982641719,744.6458045157186
0.769,9.471517458184872,744.7000697787037
0.77,9.473175198550882,744.7543360151516
0.771,9.474833203772858,744.8086032241788
0.772,9.47649147388386,744.8628714048988
0.773,9.478150008916945,744.917140556425
0.774,9.479808808905233,744.971410677873
0.775,9.481467873881764,745.0256817683546
0.776,9.483127203879654,745.0799538269847
0.777,9.484786798931966,745.1342268528753
0.778,9.486446659071763,745.1885008451387
0.779,9.488106784332166,745.2427758028891
0.78,9.489767174746236,745.2970517252379
0.781,9.491427830347039,745.3513286112959
0.782,9.493088751167695,745.4056064601771
0.783,9.494749937241258,745.4598852709909
0.784,9.49641138860084,745.5141650428499
0.785,9.498073105279515,745.5684457748639
0.786,9.499735087310349,745.6227274661434
0.787,9.501397334726462,745.6770101157998
0.788,9.50305984756091,745.7312937229418
0.789,9.504722625846817,745.7855782866804
0.79,9.506385669617247,745.8398638061242
0.791,9.50804897890528,745.8941502803823
0.792,9.509712553744038,745.9484377085647
0.793,9.511376394166577,746.0027260897789
0.794,9.51304050020602,746.0570154231342
0.795,9.514704871895445,746.1113057077383
0.796,9.51636950926793,746.1655969426988
0.797,9.518034412356595,746.2198891271239
0.798,9.519699581194502,746.2741822601197
0.799,9.52136501581478,746.328476340795
0.8,9.523030716250512,746.3827713682552
0.801,9.524696682534765,746.4370673416065
0.802,9.525760723549777,746.4677698618591
0.803,9.527427125154327,746.5220670504484
0.804,9.529093792694553,746.5763651825519
0.805,9.530760726203535,746.6306642572732
0.806,9.532427925714408,746.6849642737199
0.807,9.534095391260234,746.739265230995
0.808,9.535763122874148,746.7935671282045
0.809,9.537431120589229,746.8478699644521
0.81,9.539099384438563,746.9021737388415
0.811,9.540767914455287,746.9564784504772
0.812,9.54243671067247,747.0107840984625
0.813,9.54410577312324,747.0650906819012
0.814,9.54577510184069,747.119398199896
0.815,9.547444696857896,747.173706651548
0.816,9.549114558208009,747.2280160359622
0.817,9.550784685924109,747.2823263522394
0.818,9.552455080039286,747.336637599481
0.819,9.554125740586676,747.3909497767901
0.82,9.555796667599354,747.4452628832664
0.821,9.557467861110464,747.4995769180126
0.822,9.55913932115309,747.5538918801285
0.823,9.560811047760323,747.608207768714
0.824,9.562483040965311,747.6625245828709
0.825,9.564155300801119,747.7168423216974
0.826,9.565827827300902,747.771160984295
0.827,9.567500620497748,747.8254805697622
0.828,9.569173680424747,747.8798010771973
0.829,9.570847007115045,747.9341225057007
0.83,9.57252060060172,747.9884448543695
0.831,9.574194460917926,748.0427681223034
0.832,9.575868588096746,748.0970923085998
0.833,9.577542982171286,748.151417412356
0.834,9.579217643174688,748.2057434326701
0.835,9.580892571140053,748.2600703686394
0.836,9.581962022065406,748.2907462005171
0.837,9.583637387118491,748.3450742992187
0.838,9.585313019220724,748.3994033111735
0.839,9.586988918405197,748.4537332354764
0.84,9.588665084705049,748.5080640712242
0.841,9.590341518153384,748.5623958175123
0.842,9.592018218783304,748.6167284734349
0.843,9.593695186627958,748.671062038089
0.844,9.59537242172044,748.7253965105679
0.845,9.597049924093888,748.779731889967
0.846,9.59872769378142,748.8340681753805
0.847,9.600405730816133,748.8884053659013
0.848,9.602084035231181,748.9427434606249
0.849,9.60376260705965,748.9970824586429
0.85,9.605441446334702,749.0514223590502
0.851,9.607120553089437,749.1057631609386
0.852,9.608799927356959,749.1601048634
0.853,9.610479569170433,749.2144474655282
0.854,9.61215947856296,749.2687909664147
0.855,9.613839655567647,749.3231353651502
0.856,9.615520100217656,749.377480660828
0.857,9.617200812546079,749.4318268525377
0.858,9.618881792586073,749.4861739393717
0.859,9.62056304037075,749.5405219204197
0.86,9.622244555933214,749.5948707947713
0.861,9.623926339306633,749.6492205615186
0.862,9.6256083905241,749.7035712197495
0.863,9.627290709618778,749.7579227685553
0.864,9.62897329662378,749.8122752070243
0.865,9.630656151572209,749.8666285342445
0.866,9.63233927449724,749.9209827493062
0.867,9.634022665431964,749.9753378512969
0.868,9.635097221320253,750.0059876050101
0.869,9.636781051005137,750.060343819873
0.87,9.63846514878696,750.1147009192405
0.871,9.64014951469881,750.1690589021985
0.872,9.641834148773857,750.2234177678354
0.873,9.64351905104522,750.2777775152377
0.874,9.645204221546017,750.3321381434913
0.875,9.646889660309407,750.3864996516836
0.876,9.6485753673685,750.4408620388995
0.877,9.65026134275646,750.4952253042256
0.878,9.651947586506408,750.5495894467474
0.879,9.653634098651457,750.603954465549
0.88,9.655320879224782,750.6583203597166
0.881,9.657007928259489,750.712687128334
0.882,9.658695245788744,750.7670547704862
0.883,9.660382831845666,750.8214232852571
0.884,9.662070686463384,750.8757926717298
0.885,9.663758809675064,750.9301629289889
0.886,9.66544720151383,750.984534056117
0.887,9.667135862012806,751.0389060521965
0.888,9.66882479120516,751.0932789163113
0.889,9.670513989124009,751.1476526475427
0.89,9.67220345580252,751.202027244974
0.891,9.673893191273816,751.2564027076863
0.892,9.675583195571027,751.3107790347608
0.893,9.677273468727329,751.3651562252799
0.894,9.67896401077583,751.4195342783235
0.895,9.680654821749702,751.4739131929732
0.896,9.68234590168208,751.5282929683093
0.897,9.68403725060608,751.5826736034109
0.898,9.685728868554897,751.6370550973596
0.899,9.687420755561622,751.6914374492328
0.9,9.688500432572985,751.7220601820916
0.901,9.690192759992271,751.7764435965123
0.902,9.691885356556742,751.8308278664108
0.903,9.69357822229951,751.8852129908643
0.904,9.695271357253757,751.9395989689529
0.905,9.696964761452618,751.9939857997535
0.906,9.698658434929216,752.0483734823433
0.907,9.700352377716737,752.1027620158013
0.908,9.70204658984829,752.1571513992029
0.909,9.703741071357067,752.211541631627
0.91,9.705435822276195,752.265932712149
0.911,9.707130842638806,752.3203246398454
0.912,9.708826132478084,752.3747174137926
0.913,9.710521691827148,752.4291110330654
0.914,9.712217520719186,752.4835054967413
0.915,9.713913619187323,752.537900803894
0.916,9.715609987264703,752.5922969535985
0.917,9.717306624984504,752.6466939449302
0.918,9.719003532379855,752.7010917769627
0.919,9.720700709483934,752.7554904487712
0.92,9.722398156329879,752.8098899594287
0.921,9.72409587295083,752.8642903080083
0.922,9.72579385937997,752.9186914935846
0.923,9.727492115650442,752.9730935152303
0.924,9.729190641795382,753.0274963720169
0.925,9.730889437847976,753.0819000630183
0.926,9.732588503841354,753.1363045873054
0.927,9.734287839808697,753.1907099439513
0.928,9.735987445783145,753.245116132027
0.929,9.737687321797846,753.2995231506034
0.93,9.739387467885988,753.3539309987527
0.931,9.740472119493901,753.3845266521832
0.932,9.742172707604306,753.4389355136992
0.933,9.743873565875408,753.4933452023168
0.934,9.745574694340347,753.5477557171054
0.935,9.747276093032267,753.6021670571341
0.936,9.74897776198436,753.6565792214736
0.937,9.750679701229771,753.7109922091925
0.938,9.75238191080164,753.7654060193591
0.939,9.754084390733167,753.8198206510438
0.94,9.755787141057471,753.8742361033127
0.941,9.757490161807755,753.9286523752356
0.942,9.759193453017158,753.9830694658795
0.943,9.760897014718825,754.0374873743114
0.944,9.762600846945954,754.0919060995998
0.945,9.764304949731677,754.1463256408103
0.946,9.766009323109186,754.200745997011
0.947,9.76771396711163,754.2551671672676
0.948,9.769418881772152,754.3095891506451
0.949,9.771124067123958,754.3640119462112
0.95,9.77282952320017,754.4184355530296
0.951,9.774535250033988,754.4728599701671
0.952,9.776241247658566,754.5272851966881
0.953,9.777947516107048,754.5817112316563
0.954,9.77965405541263,754.6361380741374
0.955,9.781360865608448,754.6905657231946
0.956,9.78306794672771,754.7449941778932
0.957,9.784775298803554,754.7994234372953
0.958,9.786482921869135,754.8538535004643
0.959,9.788190815957655,754.9082843664643
0.96,9.789898981102265,754.9627160343566
0.961,9.791607417336119,755.0171485032045
0.962,9.792697058595406,755.0477161785141
0.963,9.794405938461075,755.1021496111103
0.964,9.796115089503262,755.1565838421677
0.965,9.797824511755167,755.2110188707483
0.966,9.799534205249945,755.265454695913
0.967,9.801244170020745,755.3198913167222
0.968,9.802954406100781,755.3743287322371
0.969,9.80466491352318,755.4287669415176
0.97,9.806375692321152,755.4832059436241
0.971,9.808086742527847,755.5376457376159
0.972,9.809798064176427,755.5920863225523
0.973,9.81150965730009,755.6465276974934
0.974,9.813221521931993,755.7009698614971
0.975,9.814933658105293,755.7554128136215
0.976,9.816646065853197,755.8098565529266
0.977,9.818358745208839,755.8643010784684
0.978,9.820071696205433,755.9187463893068
0.979,9.821784918876135,755.9731924844978
0.98,9.823498413254098,756.0276393630983
0.981,9.825212179372533,756.0820870241663
0.982,9.826926217264578,756.1365354667576
0.983,9.828640526963445,756.1909846899291
0.984,9.83035510850229,756.2454346927368
0.985,9.832069961914275,756.2998854742352
0.986,9.833785087232604,756.3543370334816
0.987,9.83550048449042,756.4087893695296
0.988,9.837216153720938,756.4632424814354
0.989,9.838932094957318,756.5176963682533
0.99,9.840648308232712,756.5721510290366
0.991,9.842364793580336,756.6266064628409
0.992,9.843459275895206,756.6571462042023
0.993,9.845176206431335,756.7116025533344
0.994,9.846893409126945,756.7660596729701
0.995,9.848610884015256,756.820517562164
0.996,9.850328631129406,756.8749762199674
0.997,9.852046650502617,756.9294356454342
0.998,9.853764942168043,756.9838958376159
0.999,9.855483506158853,757.0383567955638
1.0,9.857202342508252,757.0928185183308
1.001,9.858921451249389,757.1472810049664
1.002,9.86064083241548,757.2017442545236
1.003,9.862360486039687,757.2562082660521
1.004,9.86408041215517,757.3106730386016
1.005,9.865800610795148,757.3651385712244
1.006,9.86752108199277,757.4196048629686
1.007,9.869241825781245,757.4740719128846
1.008,9.870962842193743,757.5285397200219
1.009,9.872684131263421,757.5830082834285
1.01,9.874405693023501,757.6374776021541
1.011,9.87612752750715,757.6919476752474
1.012,9.87784963474753,757.7464185017556
1.013,9.879572014777862,757.8008900807279
1.014,9.881294667631286,757.8553624112102
1.015,9.883017593341028,757.9098354922519
1.016,9.88474079194025,757.9643093228989
1.017,9.886464263462116,758.018783902197
1.018,9.888188007939851,758.073259229195
1.019,9.8899120254066,758.1277353029368
1.02,9.891636315895585,758.1822121224706
1.021,9.892735489201577,758.2127240535258
1.022,9.894460226382893,758.2672017412066
1.023,9.896185236673714,758.32168017214
1.024,9.897910520107247,758.3761593453725
1.025,9.899636076716671,758.4306392599485
1.026,9.901361906535154,758.4851199149114
1.027,9.903088009595914,758.5396013093064
1.028,9.9048143859321,758.5940834421763
1.029,9.906541035576936,758.6485663125657
1.03,9.90826795856359,758.7030499195166
1.031,9.90999515492523,758.7575342620719
1.032,9.91172262469508,758.8120193392756
1.033,9.913450367906291,758.8665051501682
1.034,9.915178384592087,758.9209916937934
1.035,9.916906674785634,758.9754789691923
1.036,9.918635238520105,759.0299669754057
1.037,9.920364075828726,759.0844557114763
1.038,9.922093186744643,759.1389451764428
1.039,9.923822571301082,759.1934353693482
1.04,9.925552229531217,759.2479262892315
1.041,9.927282161468215,759.3024179351327
1.042,9.929012367145303,759.3569103060923
1.043,9.930742846595633,759.4114034011487
1.044,9.93247359985243,759.4658972193425
1.045,9.934204626948864,759.5203917597119
1.046,9.93593592791811,759.5748870212942
1.047,9.937667502793389,759.6293830031301
1.048,9.939399351607879,759.6838797042564
1.049,9.94113147439475,759.7383771237105
1.05,9.942235351710128,759.7688604407638
1.051,9.943967922692773,759.8233586807956
1.052,9.94570076773511,759.8778576365966
1.053,9.947433886870353,759.9323573072044
1.054,9.949167280131684,759.9868576916551
1.055,9.950900947552277,760.0413587889844
1.056,9.952634889165354,760.0958605982291
1.057,9.95436910500408,760.150363118424
1.058,9.956103595101672,760.2048663486053
1.059,9.957838359491308,760.2593702878072
1.06,9.95957339820616,760.3138749350642
1.061,9.96130871127946,760.3683802894118
1.062,9.96304429874438,760.4228863498836
1.063,9.96478016063409,760.4773931155124
1.064,9.966516296981828,760.531900585334
1.065,9.968252707820742,760.5864087583794
1.066,9.969989393184067,760.6409176336838
1.067,9.971726353104975,760.6954272102786
1.068,9.973463587616639,760.7499374871957
1.069,9.97520109675229,760.8044484634687
1.07,9.976938880545086,760.8589601381278
1.071,9.978676939028258,760.9134725102067
1.072,9.980415272234978,760.9679855787354
1.073,9.982153880198421,761.0224993427439
1.074,9.983892762951823,761.0770138012649
1.075,9.98563192052834,761.1315289533273
1.076,9.9873713529612,761.1860447979627
1.077,9.98911106028358,761.2405613342002
1.078,9.99021948963261,761.2710162610706
1.079,9.99195964660119,761.3255335716049
1.08,9.993700078546617,761.3800515711621
1.081,9.99544078550207,761.4345702587714
1.082,9.997181767500726,761.4890896334599
1.083,9.99892302457581,761.5436096942572
1.084,10.000664556760489,761.5981304401903
1.085,10.002406364087985,761.6526518702876
1.086,10.004148446591485,761.7071739835765
1.087,10.005890804304162,761.7616967790834
1.088,10.007633437259244,761.8162202558357
1.089,10.009376345489898,761.8707444128593
1.09,10.011119529029349,761.9252692491813
1.091,10.01286298791078,761.9797947638272
1.092,10.014606722167368,762.0343209558222
1.093,10.016350731832341,762.0888478241923
1.094,10.018095016938863,762.1433753679618
1.095,10.019839577520168,762.1979035861567
1.096,10.02158441360943,762.252432477801
1.097,10.023329525239829,762.306962041918
1.098,10.025074912444598,762.361492277533
1.099,10.026820575256915,762.4160231836692
1.1,10.028566513709958,762.4705547593487
1.101,10.030312727836964,762.5250870035966
1.102,10.032059217671096,762.5796199154343
1.103,10.033805983245577,762.6341534938849
1.104,10.03555302459359,762.6886877379703
1.105,10.037300341748317,762.7432226467122
1.106,10.038413335170848,762.773648423847
1.107,10.040161103421761,762.8281840602427
1.108,10.041909147566695,762.8827203586944
1.109,10.04365746763888,762.9372573182245
1.11,10.045406063671502,762.9917949378525
1.111,10.047154935697737,763.0463332165982
1.112,10.048904083750818,763.100872153483
1.113,10.050653507863917,763.1554117475257
1.114,10.05240320807023,763.2099519977452
1.115,10.054153184402976,763.264492903162
1.116,10.05590343689533,763.3190344627939
1.117,10.057653965580513,763.37357667566
1.118,10.059404770491714,763.428119540779
1.119,10.061155851662107,763.4826630571672
1.12,10.062907209124933,763.5372072238442
1.121,10.064658842913346,763.5917520398257
1.122,10.066410753060588,763.6462975041306
1.123,10.068162939599834,763.7008436157746
1.124,10.069915402564266,763.755390373774
1.125,10.07166814198712,763.809937777146
1.126,10.073421157901555,763.8644858249056
1.127,10.075174450340803,763.9190345160691
1.128,10.076928019338057,763.9735838496521
1.129,10.078681864926484,764.0281338246685
1.13,10.080435987139325,764.0826844401347
1.131,10.08219038600976,764.1372356950642
1.132,10.083945061570969,764.1917875884711
1.133,10.085062465260421,764.2221845386666
1.134,10.086817593314736,764.2767371144236
1.135,10.088572998147132,764.3312903260372
1.136,10.090328679790835,764.3858441725218
1.137,10.092084638279031,764.44039865289
1.138,10.093840873644895,764.4949537661533
1.139,10.09559738592167,764.5495095113258
1.14,10.097354175142513,764.6040658874181
1.141,10.09911124134066,764.658622893443
1.142,10.100868584549294,764.713180528411
1.143,10.102626204801593,764.7677387913337
1.144,10.104384102130789,764.822297681222
1.145,10.106142276570054,764.8768571970862
1.146,10.107900728152615,764.9314173379375
1.147,10.109659456911654,764.9859781027848
1.148,10.11141846288035,765.0405394906373
1.149,10.113177746091944,765.0951015005063
1.15,10.114937306579616,765.1496641313998
1.151,10.11669714437654,765.2042273823259
1.152,10.118457259515953,765.2587912522945
1.153,10.120217652031025,765.3133557403128
1.154,10.121978321954984,765.36792084539
1.155,10.123739269321009,765.4224865665329
1.156,10.125500494162283,765.4770529027479
1.157,10.127261996512047,765.5316198530446
1.158,10.129023776403459,765.5861874164273
1.159,10.13078583386975,765.6407555919045
1.16,10.131907658930153,765.6711229996447
1.161,10.13367017028586,765.7256918118263
1.162,10.135432959303705,765.7802612334601
1.163,10.137196026016928,765.8348312635534
1.164,10.138959370458702,765.8894019011099
1.165,10.14072299266221,765.9439731451342
1.166,10.142486892660694,765.9985449946325
1.167,10.144251070487309,766.0531174486074
1.168,10.146015526175287,766.1076905060642
1.169,10.147780259757816,766.1622641660059
1.17,10.149545271268073,766.2168384274356
1.171,10.151310560739288,766.2714132893576
1.172,10.153076128204631,766.3259887507731
1.173,10.154841973697334,766.3805648106866
1.174,10.15660809725057,766.4351414680989
1.175,10.15837449889753,766.4897187220118
1.176,10.160141178671438,766.5442965714283
1.177,10.161908136605467,766.5988750153484
1.178,10.163675372732845,766.6534540527746
1.179,10.16544288708675,766.7080336827067
1.18,10.167210679700363,766.7626139041448
1.181,10.16897875060692,766.8171947160904
1.182,10.1707470998396,766.8717761175432
1.183,10.17251572743158,766.9263581075012
1.184,10.174284633416098,766.9809406849658
1.185,10.176053817826311,767.0355238489342
1.186,10.177179908700294,767.0658621345722
1.187,10.1789495483432,767.1204458909901
1.188,10.1807194664991,767.1750302312529
1.189,10.182489663201176,767.2296151543577
1.19,10.184260138482665,767.2842006593036
1.191,10.186030892376724,767.3387867450862
1.192,10.187801924916586,767.3933734107047
1.193,10.189573236135434,767.4479606551547
1.194,10.191344826066441,767.5025484774322
1.195,10.193116694742848,767.5571368765351
1.196,10.194888842197807,767.6117258514577
1.197,10.196661268464553,767.6663154011967
1.198,10.19843397357627,767.7209055247474
1.199,10.20020695756613,767.7754962211042
1.2,10.201980220467364,767.8300874892624
1.201,10.203753762313157,767.884679328217
1.202,10.205527583136687,767.9392717369603
1.203,10.207301682971178,767.9938647144884
1.204,10.209076061849798,768.0484582597934
1.205,10.210850719805773,768.10305237187
1.206,10.212625656872287,768.1576470497105
1.207,10.214400873082516,768.212242292307
1.208,10.216176368469684,768.2668380986528
1.209,10.217952143066961,768.3214344677392
1.21,10.219728196907571,768.3760313985595
1.211,10.221504530024696,768.4306288901042
1.212,10.222634896922958,768.4609373819077
1.213,10.22441168661532,768.5155354213265
1.214,10.22618875567148,768.5701340187907
1.215,10.227966104124611,768.6247331732903
1.216,10.229743732007899,768.679332883815
1.217,10.23152163935457,768.7339331493561
1.218,10.233299826197777,768.7885339689009
1.219,10.235078292570757,768.8431353414411
1.22,10.236857038506677,768.8977372659646
1.221,10.238636064038726,768.9523397414599
1.222,10.240415369200127,769.0069427669168
1.223,10.24219495402404,769.0615463413217
1.224,10.243974818543686,769.1161504636636
1.225,10.24575496279225,769.17075513293
1.226,10.247535386802902,769.2253603481071
1.227,10.249316090608875,769.2799661081834
1.228,10.251097074243328,769.3345724121448
1.229,10.252878337739482,769.389179258978
1.23,10.254659881130515,769.4437866476691
1.231,10.256441704449603,769.4983945772032
1.232,10.258223807729976,769.5530030465671
1.233,10.260006191004805,769.6076120547452
1.234,10.261788854307268,769.6622216007221
1.235,10.263571797670586,769.7168316834833
1.236,10.265355021127919,769.771442302012
1.237,10.266489506821825,769.8017215162511
1.238,10.268273188143947,769.8563326395179
1.239,10.270057149647348,769.9109442958544
1.24,10.271841391365209,769.9655564842432
1.241,10.27362591333075,770.0201692036685
1.242,10.275410715577129,770.0747824531114
1.243,10.277195798137571,770.1293962315561
1.244,10.27898116104525,770.1840105379838
1.245,10.280766804333338,770.2386253713756
1.246,10.282552728035059,770.2932407307144
1.247,10.284338932183585,770.3478566149809
1.248,10.286125416812093,770.4024730231553
1.249,10.287912181953802,770.4570899542193
1.25,10.289699227641865,770.5117074071519
1.251,10.291486553909516,770.5663253809354
1.252,10.293274160789915,770.6209438745477
1.253,10.295062048316238,770.6755628869682
1.254,10.296850216521714,770.7301824171772
1.255,10.298638665439483,770.7848024641522
1.256,10.30042739510278,770.8394230268736
1.257,10.302216405544772,770.8940441043184
1.258,10.304005696798628,770.9486656954642
1.259,10.305795268897576,771.0032877992904
1.26,10.307585121874759,771.0579104147723
1.261,10.309375255763403,771.1125335408884
1.262,10.31116567059668,771.1671571766154
1.263,10.312304452228243,771.1974052670312
1.264,10.314095326267374,771.252029362294
1.265,10.315886481338383,771.3066539644499
1.266,10.317677917474434,771.3612790724732
1.267,10.319469634708701,771.4159046853393
1.268,10.321261633074402,771.4705308020248
1.269,10.32305391260469,771.5251574215032
1.27,10.324846473332782,771.5797845427502
1.271,10.326639315291848,771.6344121647392
1.272,10.328432438515055,771.689040286444
1.273,10.330225843035619,771.7436689068392
1.274,10.332019528886688,771.7982980248967
1.275,10.333813496101492,771.8529276395914
1.276,10.335607744713187,771.9075577498951
1.277,10.33740227475494,771.96218835478
1.278,10.339197086259974,772.0168194532193
1.279,10.34099217926143,772.0714510441833
1.28,10.342787553792535,772.1260831266458
1.281,10.344583209886451,772.1807156995766
1.282,10.346379147576336,772.2353487619463
1.283,10.348175366895417,772.2899823127273
1.284,10.349971867876851,772.3446163508886
1.285,10.351768650553806,772.399250875401
1.286,10.3535657149595,772.4538858852343
1.287,10.354708466287947,772.4841046553881
1.288,10.356505991135187,772.5387400827954
1.289,10.358303797798369,772.5933759927876
1.29,10.360101886310657,772.6480123843323
1.291,10.36190025670521,772.702649256398
1.292,10.363698909015243,772.7572866079536
1.293,10.365497843273904,772.8119244379659
1.294,10.367297059514406,772.8665627454036
1.295,10.369096557769907,772.9212015292335
1.296,10.370896338073576,772.975840788422
1.297,10.372696400458617,773.0304805219371
1.298,10.374496744958199,773.0851207287443
1.299,10.376297371605476,773.1397614078093
1.3,10.378098280433662,773.1944025580988
1.301,10.379899471475902,773.2490441785776
1.302,10.381700944765406,773.3036862682119
1.303,10.383502700335336,773.3583288259659
1.304,10.385304738218846,773.4129718508036
1.305,10.387107058449152,773.4676153416908
1.306,10.38890966105939,773.5222592975899
1.307,10.390712546082776,773.5769037174662
1.308,10.392515713552458,773.631548600282
1.309,10.394319163501606,773.6861939450006
1.31,10.39612289596342,773.7408397505856
1.311,10.39792691097105,773.7954860159982
1.312,10.39907380906939,773.8256736118402
1.313,10.400878285805781,773.880320250801
1.314,10.402683045175182,773.9349673468341
1.315,10.404488087210739,773.9896148989008
1.316,10.406293411945668,774.0442629059634
1.317,10.408099019413118,774.0989113669816
1.318,10.409904909646249,774.153560280916
1.319,10.411711082678263,774.2082096467283
1.32,10.4135175385423,774.2628594633766
1.321,10.415324277271566,774.3175097298223
1.322,10.417131298899214,774.3721604450237
1.323,10.418938603458397,774.4268116079396
1.324,10.420746190982316,774.48146321753
1.325,10.422554061504114,774.5361152727521
1.326,10.424362215056988,774.5907677725655
1.327,10.426170651674095,774.6454207159272
1.328,10.427979371388584,774.7000741017943
1.329,10.42978837423366,774.7547279291252
1.33,10.431597660242454,774.809382196876
1.331,10.433407229448171,774.8640369040045
1.332,10.43521708188396,774.918692049466
1.333,10.437027217582973,774.9733476322168
1.334,10.438837636578409,775.0280036512138
1.335,10.440648338903419,775.0826601054114
1.336,10.441799224125212,775.1128171812923
1.337,10.44361038941304,775.1674739665146
1.338,10.445421838117609,775.2221311841645
1.339,10.447233570272049,775.2767888331947
1.34,10.449045585909559,775.3314469125608
1.341,10.450857885063286,775.3861054212161
1.342,10.452670467766378,775.4407643581135
1.343,10.454483334052028,775.4954237222071
1.344,10.456296483953366,775.5500835124487
1.345,10.458109917503599,775.604743727793
1.346,10.459923634735862,775.6594043671906
1.347,10.461737635683303,775.7140654295938
1.348,10.46355192037912,775.7687269139551
1.349,10.465366488856453,775.8233888192256
1.35,10.467181341148452,775.8780511443559
1.351,10.468996477288309,775.9327138882978
1.352,10.470811897309149,775.9873770500008
1.353,10.472627601244165,776.0420406284163
1.354,10.474443589126505,776.0967046224938
1.355,10.476259860989305,776.1513690311822
1.356,10.478076416865761,776.2060338534325
1.357,10.479893256788998,776.2606990881918
1.358,10.481710380792203,776.3153647344105
1.359,10.483527788908527,776.3700307910365
1.36,10.484682669737266,776.4001567542383
1.361,10.486500542049633,776.4548230990914
1.362,10.488318698562253,776.50948985156
1.363,10.490137139308255,776.5641570105904
1.364,10.491955864320783,776.6188245751292
1.365,10.493774873633022,776.6734925441243
1.366,10.495594167278096,776.7281609165213
1.367,10.497413745289196,776.7828296912678
1.368,10.499233607699448,776.8374988673081
1.369,10.501053754542001,776.892168443588
1.37,10.502874185850036,776.946838419054
1.371,10.504694901656674,777.0015087926496
1.372,10.506515901995101,777.0561795633212
1.373,10.508337186898453,777.110850730012
1.374,10.51015875639986,777.1655222916659
1.375,10.511980610532511,777.2201942472277
1.376,10.51380274932952,777.2748665956394
1.377,10.515625172824075,777.3295393358462
1.378,10.517447881049304,777.3842124667898
1.379,10.51927087403834,777.4388859874124
1.38,10.521094151824368,777.4935598966571
1.381,10.522917714440501,777.5482341934653
1.382,10.524741561919923,777.6029088767797
1.383,10.525900277203506,777.6330044748361
1.384,10.527724590059181,777.687679405131
1.385,10.529549187865188,777.7423547191203
1.386,10.53137407065472,777.797030415746
1.387,10.533199238460893,777.8517064939479
1.388,10.535024691316842,777.9063829526652
1.389,10.536850429255743,777.9610597908389
1.39,10.538676452310712,778.0157370074074
1.391,10.540502760514917,778.0704146013106
1.392,10.542329353901497,778.1250925714875
1.393,10.544156232503566,778.1797709168749
1.394,10.54598339635431,778.2344496364133
1.395,10.54781084548683,778.2891287290385
1.396,10.549638579934307,778.3438081936902
1.397,10.55146659972986,778.3984880293042
1.398,10.553294904906615,778.4531682348176
1.399,10.555123495497748,778.507848809168
1.4,10.556952371536381,778.5625297512914
1.401,10.558781533055631,778.6172110601233
1.402,10.56061098008868,778.6718927346003
1.403,10.562440712668623,778.7265747736573
1.404,10.564270730828637,778.7812571762306
1.405,10.566101034601843,778.8359399412543
1.406,10.567263592059522,778.866004624216
1.407,10.569094362388274,778.9206875947182
1.408,10.57092541841728,778.9753709248434
1.409,10.572756760179647,779.0300546135243
1.41,10.574588387708538,779.0847386596953
1.411,10.57642030103707,779.1394230622893
1.412,10.578252500198358,779.1941078202384
1.413,10.58008498522558,779.2487929324767
1.414,10.58191775615184,779.3034783979357
1.415,10.58375081301026,779.3581642155467
1.416,10.585584155834004,779.4128503842431
1.417,10.58741778465617,779.4675369029547
1.418,10.589251699509923,779.522223770614
1.419,10.59108590042837,779.5769109861507
1.42,10.592920387444634,779.6315985484954
1.421,10.594755160591873,779.6862864565796
1.422,10.596590219903181,779.7409747093315
1.423,10.59842556541172,779.795663305682
1.424,10.600261197150605,779.85035224456
1.425,10.602097115152938,779.9050415248935
1.426,10.60393331945189,779.9597311456132
1.427,10.605769810080545,780.0144211056457
1.428,10.607606587072068,780.0691114039203
1.429,10.608772994392872,780.0991446187539
1.43,10.610610239118351,780.1538350807516
1.431,10.612447770293674,780.2085258781443
1.432,10.614285587951995,780.2632170098603
1.433,10.616123692126417,780.3179084748255
1.434,10.617962082850045,780.3726002719659
