TimeMS,Acc,qDot
0.0,7.888059042431242e-08,-3.56631904257571e-05
0.001,7.888059042430284e-08,0.06867829532181986
0.002,7.888059042429328e-08,0.06867829532180736
0.003,7.88805904242837e-08,0.06867829532179485
0.004,7.888059042427412e-08,0.06867829532178234
0.005,7.888059042426455e-08,0.06867829532176983
0.006,7.888059042425498e-08,0.06867829532175733
0.007,7.88805904242454e-08,0.06867829532174484
0.008,7.888059042423583e-08,0.06867829532173234
0.009,7.888059042422626e-08,0.06867829532171983
0.01,7.888059042421668e-08,0.06867829532170733
0.011,7.888059042420711e-08,0.06867829532169481
0.012,7.888059042419754e-08,0.0686782953216823
0.013,7.888059042418796e-08,0.06867829532166982
0.014,7.888059042417838e-08,0.06867829532165731
0.015,7.888059042416882e-08,0.06867829532164481
0.016,7.888059042415924e-08,0.0686782953216323
0.017,7.888059042414966e-08,0.0686782953216198
0.018,7.88805904241401e-08,0.0686782953216073
0.019,7.888059042413052e-08,0.06867829532159479
0.02,7.888059042412094e-08,0.06867829532158229
0.021,7.888059042411137e-08,0.06867829532156979
0.022,7.88805904241018e-08,0.06867829532155728
0.023,7.888059042409222e-08,0.06867829532154478
0.024,7.888059042408265e-08,0.06867829532153227
0.025,7.888059042407307e-08,0.06867829532151977
0.026,7.88805904240635e-08,0.06867829532150727
0.027,7.888059042405393e-08,0.06867829532149476
0.028,7.888059042404435e-08,0.06867829532148226
0.029,7.888059042403478e-08,0.06867829532146975
0.03,7.888059042402521e-08,0.06867829532145725
0.031,7.888059042401563e-08,0.06867829532144475
0.032,7.888059042400606e-08,0.06867829532143224
0.033,7.888059042399649e-08,0.06867829532141974
0.034,7.88805904239869e-08,0.06867829532140723
0.035,7.888059042397734e-08,0.06867829532139473
0.036,7.888059042396777e-08,0.06867829532138224
0.037,7.888059042395819e-08,0.06867829532136972
0.038,7.888059042394862e-08,0.06867829532135722
0.039,7.888059042393905e-08,0.06867829532134472
0.04,7.888059042392947e-08,0.06867829532133221
0.041,7.88805904239199e-08,0.06867829532131972
0.042,7.888059042391032e-08,0.06867829532130722
0.043,7.888059042390075e-08,0.0686782953212947
0.044,7.888059042389118e-08,0.0686782953212822
0.045,7.88805904238816e-08,0.06867829532126969
0.046,7.888059042387203e-08,0.06867829532125719
0.047,7.888059042386245e-08,0.0686782953212447
0.048,7.888059042385288e-08,0.0686782953212322
0.049,7.888059042384331e-08,0.06867829532121969
0.05,7.888059042383373e-08,0.06867829532120717
0.051,7.888059042382416e-08,0.06867829532119467
0.052,7.888059042381457e-08,0.06867829532118216
0.053,7.8880590423805e-08,0.06867829532116967
0.054,7.888059042379544e-08,0.06867829532115717
0.055,7.888059042378585e-08,0.06867829532114467
0.056,7.888059042377629e-08,0.06867829532113216
0.057,7.888059042376672e-08,0.06867829532111965
0.058,7.888059042375714e-08,0.06867829532110714
0.059,7.888059042374757e-08,0.06867829532109465
0.06,7.888059042373798e-08,0.06867829532108215
0.061,7.888059042372842e-08,0.06867829532106964
0.062,7.888059042371883e-08,0.06867829532105714
0.063,7.888059042370926e-08,0.06867829532104464
0.064,7.88805904236997e-08,0.06867829532103215
0.065,7.888059042369011e-08,0.06867829532101964
0.066,7.888059042368054e-08,0.06867829532100714
0.067,7.888059042367098e-08,0.06867829532099463
0.068,7.88805904236614e-08,0.06867829532098213
0.069,7.888059042365183e-08,0.06867829532096963
0.07,7.888059042364226e-08,0.06867829532095712
0.071,7.888059042363267e-08,0.06867829532094462
0.072,7.88805904236231e-08,0.06867829532093211
0.073,7.888059042361354e-08,0.06867829532091961
0.074,7.888059042360395e-08,0.06867829532090712
0.075,7.888059042359439e-08,0.0686782953208946
0.076,7.888059042358482e-08,0.0686782953208821
0.077,7.888059042357523e-08,0.0686782953208696
0.078,7.888059042356567e-08,0.06867829532085709
0.079,7.888059042355608e-08,0.06867829532084459
0.08,7.888059042354652e-08,0.0686782953208321
0.081,7.888059042353695e-08,0.06867829532081958
0.082,7.888059042352736e-08,0.06867829532080708
0.083,7.88805904235178e-08,0.06867829532079457
0.084,7.888059042350823e-08,0.06867829532078207
0.085,7.888059042349864e-08,0.06867829532076956
0.086,7.888059042348906e-08,0.06867829532075707
0.087,7.888059042347951e-08,0.06867829532074457
0.088,7.888059042346992e-08,0.06867829532073205
0.089,7.888059042346034e-08,0.06867829532071955
0.09,7.888059042345079e-08,0.06867829532070704
0.091,7.88805904234412e-08,0.06867829532069454
0.092,7.888059042343162e-08,0.06867829532068205
0.093,7.888059042342205e-08,0.06867829532066955
0.094,7.888059042341249e-08,0.06867829532065704
0.095,7.88805904234029e-08,0.06867829532064453
0.096,7.888059042339333e-08,0.06867829532063202
0.097,7.888059042338377e-08,0.06867829532061953
0.098,7.888059042337418e-08,0.06867829532060703
0.099,7.888059042336461e-08,0.06867829532059452
0.1,7.888059042335505e-08,0.06867829532058202
0.101,7.888059042334546e-08,0.06867829532056952
0.102,7.888059042333588e-08,0.068678295320557
0.103,7.888059042332631e-08,0.06867829532054451
0.104,7.888059042331674e-08,0.068678295320532
0.105,7.888059042330716e-08,0.0686782953205195
0.106,7.88805904232976e-08,0.068678295320507
0.107,7.888059042328802e-08,0.06867829532049449
0.108,7.888059042327844e-08,0.06867829532048199
0.109,7.888059042326887e-08,0.06867829532046948
0.11,7.88805904232593e-08,0.06867829532045698
0.111,7.888059042324972e-08,0.06867829532044448
0.112,7.888059042324015e-08,0.06867829532043197
0.113,7.888059042323057e-08,0.06867829532041947
0.114,7.8880590423221e-08,0.06867829532040697
0.115,7.888059042321143e-08,0.06867829532039446
0.116,7.888059042320185e-08,0.06867829532038196
0.117,7.888059042319228e-08,0.06867829532036945
0.118,7.888059042318271e-08,0.06867829532035695
0.119,7.888059042317313e-08,0.06867829532034445
0.12,7.888059042316356e-08,0.06867829532033196
0.121,7.8880590423154e-08,0.06867829532031944
0.122,7.888059042314441e-08,0.06867829532030693
0.123,7.888059042313484e-08,0.06867829532029443
0.124,7.888059042312528e-08,0.06867829532028193
0.125,7.888059042311568e-08,0.06867829532026942
0.126,7.888059042310612e-08,0.06867829532025693
0.127,7.888059042309656e-08,0.06867829532024443
0.128,7.888059042308696e-08,0.06867829532023191
0.129,7.88805904230774e-08,0.0686782953202194
0.13,7.888059042306782e-08,0.0686782953202069
0.131,7.888059042305824e-08,0.0686782953201944
0.132,7.888059042304868e-08,0.06867829532018191
0.133,7.88805904230391e-08,0.0686782953201694
0.134,7.888059042302952e-08,0.0686782953201569
0.135,7.888059042301997e-08,0.0686782953201444
0.136,7.888059042301038e-08,0.06867829532013191
0.137,7.88805904230008e-08,0.0686782953201194
0.138,7.888059042299123e-08,0.0686782953201069
0.139,7.888059042298166e-08,0.0686782953200944
0.14,7.888059042297208e-08,0.06867829532008188
0.141,7.888059042296251e-08,0.06867829532006937
0.142,7.888059042295294e-08,0.06867829532005688
0.143,7.888059042294336e-08,0.06867829532004438
0.144,7.888059042293379e-08,0.06867829532003188
0.145,7.888059042292422e-08,0.06867829532001937
0.146,7.888059042291464e-08,0.06867829532000687
0.147,7.888059042290507e-08,0.06867829531999436
0.148,7.88805904228955e-08,0.06867829531998186
0.149,7.888059042288592e-08,0.06867829531996936
0.15,7.888059042287635e-08,0.06867829531995685
0.151,7.888059042286677e-08,0.06867829531994435
0.152,7.88805904228572e-08,0.06867829531993185
0.153,7.888059042284762e-08,0.06867829531991934
0.154,7.888059042283805e-08,0.06867829531990684
0.155,7.888059042282848e-08,0.06867829531989433
0.156,7.88805904228189e-08,0.06867829531988183
0.157,7.888059042280933e-08,0.06867829531986933
0.158,7.888059042279976e-08,0.06867829531985682
0.159,7.888059042279018e-08,0.06867829531984432
0.16,7.888059042278061e-08,0.06867829531983181
0.161,7.888059042277103e-08,0.06867829531981931
0.162,7.888059042276146e-08,0.0686782953198068
0.163,7.888059042275189e-08,0.0686782953197943
0.164,7.888059042274231e-08,0.0686782953197818
0.165,7.888059042273274e-08,0.06867829531976931
0.166,7.888059042272317e-08,0.06867829531975679
0.167,7.888059042271359e-08,0.06867829531974429
0.168,7.888059042270402e-08,0.06867829531973178
0.169,7.888059042269445e-08,0.06867829531971928
0.17,7.888059042268487e-08,0.06867829531970679
0.171,7.88805904226753e-08,0.06867829531969429
0.172,7.888059042266573e-08,0.06867829531968177
0.173,7.888059042265614e-08,0.06867829531966926
0.174,7.888059042264658e-08,0.06867829531965676
0.175,7.888059042263701e-08,0.06867829531964426
0.176,7.888059042262742e-08,0.06867829531963177
0.177,7.888059042261785e-08,0.06867829531961926
0.178,7.88805904226083e-08,0.06867829531960676
0.179,7.88805904225987e-08,0.06867829531959424
0.18,7.888059042258913e-08,0.06867829531958174
0.181,7.888059042257956e-08,0.06867829531956923
0.182,7.888059042256998e-08,0.06867829531955674
0.183,7.888059042256041e-08,0.06867829531954424
0.184,7.888059042255084e-08,0.06867829531953173
0.185,7.888059042254126e-08,0.06867829531951923
0.186,7.888059042253169e-08,0.06867829531950671
0.187,7.888059042252212e-08,0.06867829531949422
0.188,7.888059042251254e-08,0.06867829531948172
0.189,7.888059042250297e-08,0.06867829531946922
0.19,7.88805904224934e-08,0.06867829531945671
0.191,7.888059042248382e-08,0.06867829531944421
0.192,7.888059042247425e-08,0.0686782953194317
0.193,7.888059042246467e-08,0.0686782953194192
0.194,7.88805904224551e-08,0.0686782953194067
0.195,7.888059042244553e-08,0.06867829531939419
0.196,7.888059042243595e-08,0.06867829531938169
0.197,7.888059042242638e-08,0.06867829531936918
0.198,7.888059042241681e-08,0.06867829531935668
0.199,7.888059042240723e-08,0.06867829531934418
0.2,7.888059042239766e-08,0.06867829531933167
0.201,7.888059042238808e-08,0.06867829531931917
0.202,7.888059042237851e-08,0.06867829531930668
0.203,7.888059042236893e-08,0.06867829531929419
0.204,7.888059042235936e-08,0.06867829531928167
0.205,7.888059042234979e-08,0.06867829531926917
0.206,7.888059042234021e-08,0.06867829531925666
0.207,7.888059042233064e-08,0.06867829531924416
0.208,7.888059042232107e-08,0.06867829531923166
0.209,7.888059042231149e-08,0.06867829531921917
0.21,7.888059042230192e-08,0.06867829531920665
0.211,7.888059042229235e-08,0.06867829531919414
0.212,7.888059042228277e-08,0.06867829531918164
0.213,7.88805904222732e-08,0.06867829531916914
0.214,7.888059042226363e-08,0.06867829531915663
0.215,7.888059042225405e-08,0.06867829531914414
0.216,7.888059042224447e-08,0.06867829531913164
0.217,7.888059042223491e-08,0.06867829531911913
0.218,7.888059042222533e-08,0.06867829531910663
0.219,7.888059042221575e-08,0.06867829531909414
0.22,7.888059042220619e-08,0.06867829531908164
0.221,7.88805904221966e-08,0.06867829531906913
0.222,7.888059042218703e-08,0.06867829531905663
0.223,7.888059042217747e-08,0.06867829531904411
0.224,7.888059042216788e-08,0.06867829531903161
0.225,7.888059042215831e-08,0.06867829531901912
0.226,7.888059042214875e-08,0.06867829531900661
0.227,7.888059042213916e-08,0.06867829531899411
0.228,7.888059042212959e-08,0.0686782953189816
0.229,7.888059042212002e-08,0.06867829531896909
0.23,7.888059042211044e-08,0.06867829531895658
0.231,7.888059042210087e-08,0.0686782953189441
0.232,7.88805904220913e-08,0.06867829531893159
0.233,7.888059042208172e-08,0.06867829531891909
0.234,7.888059042207215e-08,0.06867829531890658
0.235,7.888059042206258e-08,0.06867829531889408
0.236,7.8880590422053e-08,0.06867829531888157
0.237,7.888059042204343e-08,0.06867829531886907
0.238,7.888059042203386e-08,0.06867829531885657
0.239,7.888059042202428e-08,0.06867829531884406
0.24,7.888059042201471e-08,0.06867829531883156
0.241,7.888059042200513e-08,0.06867829531881905
0.242,7.888059042199554e-08,0.06867829531880655
0.243,7.888059042198599e-08,0.06867829531879405
0.244,7.888059042197641e-08,0.06867829531878154
0.245,7.888059042196683e-08,0.06867829531876904
0.246,7.888059042195727e-08,0.06867829531875654
0.247,7.888059042194769e-08,0.06867829531874403
0.248,7.88805904219381e-08,0.06867829531873153
0.249,7.888059042192854e-08,0.06867829531871902
0.25,7.888059042191897e-08,0.06867829531870652
0.251,7.888059042190939e-08,0.06867829531869402
0.252,7.888059042189982e-08,0.06867829531868151
0.253,7.888059042189025e-08,0.06867829531866902
0.254,7.888059042188067e-08,0.06867829531865652
0.255,7.88805904218711e-08,0.068678295318644
0.256,7.888059042186153e-08,0.0686782953186315
0.257,7.888059042185195e-08,0.06867829531861899
0.258,7.888059042184238e-08,0.06867829531860649
0.259,7.888059042183281e-08,0.068678295318594
0.26,7.888059042182323e-08,0.0686782953185815
0.261,7.888059042181364e-08,0.06867829531856899
0.262,7.888059042180409e-08,0.06867829531855647
0.263,7.888059042179451e-08,0.06867829531854397
0.264,7.888059042178492e-08,0.06867829531853147
0.265,7.888059042177537e-08,0.06867829531851898
0.266,7.888059042176579e-08,0.06867829531850647
0.267,7.88805904217562e-08,0.06867829531849397
0.268,7.888059042174664e-08,0.06867829531848146
0.269,7.888059042173705e-08,0.06867829531846895
0.27,7.888059042172749e-08,0.06867829531845644
0.271,7.888059042171792e-08,0.06867829531844395
0.272,7.888059042170833e-08,0.06867829531843145
0.273,7.888059042169877e-08,0.06867829531841894
0.274,7.88805904216892e-08,0.06867829531840644
0.275,7.888059042167961e-08,0.06867829531839394
0.276,7.888059042167005e-08,0.06867829531838143
0.277,7.888059042166048e-08,0.06867829531836893
0.278,7.88805904216509e-08,0.06867829531835642
0.279,7.888059042164133e-08,0.06867829531834392
0.28,7.888059042163176e-08,0.06867829531833142
0.281,7.888059042162216e-08,0.06867829531831891
0.282,7.888059042161261e-08,0.06867829531830641
0.283,7.888059042160304e-08,0.0686782953182939
0.284,7.888059042159344e-08,0.0686782953182814
0.285,7.888059042158389e-08,0.0686782953182689
0.286,7.888059042157432e-08,0.06867829531825641
0.287,7.888059042156472e-08,0.0686782953182439
0.288,7.888059042155517e-08,0.0686782953182314
0.289,7.888059042154559e-08,0.0686782953182189
0.29,7.8880590421536e-08,0.06867829531820639
0.291,7.888059042152645e-08,0.06867829531819389
0.292,7.888059042151687e-08,0.0686782953181814
0.293,7.888059042150728e-08,0.06867829531816888
0.294,7.888059042149771e-08,0.06867829531815638
0.295,7.888059042148815e-08,0.06867829531814387
0.296,7.888059042147856e-08,0.06867829531813137
0.297,7.8880590421469e-08,0.06867829531811886
0.298,7.888059042145943e-08,0.06867829531810637
0.299,7.888059042144984e-08,0.06867829531809387
0.3,7.888059042144028e-08,0.06867829531808135
0.301,7.88805904214307e-08,0.06867829531806885
0.302,7.888059042142112e-08,0.06867829531805635
0.303,7.888059042141156e-08,0.06867829531804384
0.304,7.888059042140199e-08,0.06867829531803135
0.305,7.88805904213924e-08,0.06867829531801885
0.306,7.888059042138284e-08,0.06867829531800634
0.307,7.888059042137325e-08,0.06867829531799383
0.308,7.888059042136368e-08,0.06867829531798132
0.309,7.88805904213541e-08,0.06867829531796883
0.31,7.888059042134453e-08,0.06867829531795633
0.311,7.888059042133497e-08,0.06867829531794382
0.312,7.888059042132538e-08,0.06867829531793132
0.313,7.888059042131581e-08,0.06867829531791882
0.314,7.888059042130625e-08,0.0686782953179063
0.315,7.888059042129666e-08,0.06867829531789381
0.316,7.88805904212871e-08,0.0686782953178813
0.317,7.888059042127753e-08,0.0686782953178688
0.318,7.888059042126794e-08,0.0686782953178563
0.319,7.888059042125837e-08,0.0686782953178438
0.32,7.888059042124879e-08,0.06867829531783128
0.321,7.888059042123922e-08,0.06867829531781879
0.322,7.888059042122966e-08,0.06867829531780628
0.323,7.888059042122007e-08,0.06867829531779378
0.324,7.88805904212105e-08,0.06867829531778127
0.325,7.888059042120094e-08,0.06867829531776877
0.326,7.888059042119135e-08,0.06867829531775627
0.327,7.888059042118178e-08,0.06867829531774376
0.328,7.888059042117222e-08,0.06867829531773126
0.329,7.888059042116262e-08,0.06867829531771875
0.33,7.888059042115306e-08,0.06867829531770625
0.331,7.88805904211435e-08,0.06867829531769375
0.332,7.88805904211339e-08,0.06867829531768126
0.333,7.888059042112433e-08,0.06867829531766874
0.334,7.888059042111478e-08,0.06867829531765623
0.335,7.888059042110518e-08,0.06867829531764373
0.336,7.888059042109561e-08,0.06867829531763123
0.337,7.888059042108606e-08,0.06867829531761872
0.338,7.888059042107646e-08,0.06867829531760623
0.339,7.888059042106689e-08,0.06867829531759372
0.34,7.888059042105732e-08,0.06867829531758121
0.341,7.888059042104774e-08,0.06867829531756871
0.342,7.888059042103817e-08,0.0686782953175562
0.343,7.88805904210286e-08,0.0686782953175437
0.344,7.888059042101902e-08,0.06867829531753121
0.345,7.888059042100945e-08,0.0686782953175187
0.346,7.888059042099988e-08,0.06867829531750619
0.347,7.88805904209903e-08,0.06867829531749368
0.348,7.888059042098073e-08,0.06867829531748118
0.349,7.888059042097115e-08,0.06867829531746869
0.35,7.888059042096158e-08,0.06867829531745619
0.351,7.888059042095201e-08,0.06867829531744368
0.352,7.888059042094243e-08,0.06867829531743118
0.353,7.888059042093286e-08,0.06867829531741866
0.354,7.88805904209233e-08,0.06867829531740618
0.355,7.888059042091371e-08,0.06867829531739368
0.356,7.888059042090414e-08,0.06867829531738118
0.357,7.888059042089457e-08,0.06867829531736867
0.358,7.888059042088499e-08,0.06867829531735616
0.359,7.888059042087541e-08,0.06867829531734367
0.36,7.888059042086584e-08,0.06867829531733116
0.361,7.888059042085627e-08,0.06867829531731866
0.362,7.888059042084669e-08,0.06867829531730615
0.363,7.888059042083712e-08,0.06867829531729365
0.364,7.888059042082755e-08,0.06867829531728115
0.365,7.888059042081797e-08,0.06867829531726864
0.366,7.88805904208084e-08,0.06867829531725614
0.367,7.888059042079883e-08,0.06867829531724363
0.368,7.888059042078925e-08,0.06867829531723113
0.369,7.888059042077968e-08,0.06867829531721863
0.37,7.888059042077011e-08,0.06867829531720612
0.371,7.888059042076053e-08,0.06867829531719362
0.372,7.888059042075095e-08,0.06867829531718112
0.373,7.88805904207414e-08,0.06867829531716861
0.374,7.888059042073181e-08,0.06867829531715611
0.375,7.888059042072223e-08,0.0686782953171436
0.376,7.888059042071267e-08,0.0686782953171311
0.377,7.888059042070309e-08,0.0686782953171186
0.378,7.888059042069351e-08,0.06867829531710609
0.379,7.888059042068395e-08,0.06867829531709359
0.38,7.888059042067436e-08,0.06867829531708108
0.381,7.888059042066479e-08,0.06867829531706858
0.382,7.888059042065523e-08,0.06867829531705609
0.383,7.888059042064564e-08,0.06867829531704359
0.384,7.888059042063607e-08,0.06867829531703107
0.385,7.88805904206265e-08,0.06867829531701856
0.386,7.888059042061692e-08,0.06867829531700606
0.387,7.888059042060735e-08,0.06867829531699356
0.388,7.888059042059778e-08,0.06867829531698107
0.389,7.88805904205882e-08,0.06867829531696856
0.39,7.888059042057863e-08,0.06867829531695606
0.391,7.888059042056906e-08,0.06867829531694354
0.392,7.888059042055948e-08,0.06867829531693104
0.393,7.888059042054991e-08,0.06867829531691853
0.394,7.888059042054034e-08,0.06867829531690604
0.395,7.888059042053076e-08,0.06867829531689354
0.396,7.888059042052119e-08,0.06867829531688104
0.397,7.888059042051161e-08,0.06867829531686853
0.398,7.888059042050203e-08,0.06867829531685601
0.399,7.888059042049247e-08,0.06867829531684352
0.4,7.888059042048289e-08,0.06867829531683102
0.401,7.888059042047331e-08,0.06867829531681852
0.402,7.888059042046375e-08,0.06867829531680601
0.403,7.888059042045417e-08,0.06867829531679351
0.404,7.888059042044459e-08,0.068678295316781
0.405,7.888059042043503e-08,0.0686782953167685
0.406,7.888059042042545e-08,0.068678295316756
0.407,7.888059042041587e-08,0.06867829531674349
0.408,7.88805904204063e-08,0.06867829531673099
0.409,7.888059042039673e-08,0.06867829531671849
0.41,7.888059042038715e-08,0.06867829531670598
0.411,7.888059042037758e-08,0.06867829531669348
0.412,7.888059042036801e-08,0.06867829531668097
0.413,7.888059042035843e-08,0.06867829531666847
0.414,7.888059042034886e-08,0.06867829531665597
0.415,7.888059042033929e-08,0.06867829531664346
0.416,7.888059042032971e-08,0.06867829531663096
0.417,7.888059042032013e-08,0.06867829531661845
0.418,7.888059042031057e-08,0.06867829531660595
0.419,7.888059042030099e-08,0.06867829531659345
0.42,7.888059042029141e-08,0.06867829531658094
0.421,7.888059042028185e-08,0.06867829531656844
0.422,7.888059042027227e-08,0.06867829531655595
0.423,7.888059042026269e-08,0.06867829531654344
0.424,7.888059042025312e-08,0.06867829531653094
0.425,7.888059042024355e-08,0.06867829531651844
0.426,7.888059042023397e-08,0.06867829531650593
0.427,7.88805904202244e-08,0.06867829531649344
0.428,7.888059042021482e-08,0.06867829531648094
0.429,7.888059042020525e-08,0.06867829531646842
0.43,7.888059042019568e-08,0.06867829531645592
0.431,7.88805904201861e-08,0.06867829531644341
0.432,7.888059042017653e-08,0.06867829531643092
0.433,7.888059042016696e-08,0.06867829531641842
0.434,7.888059042015738e-08,0.06867829531640592
0.435,7.888059042014781e-08,0.06867829531639341
0.436,7.888059042013824e-08,0.0686782953163809
0.437,7.888059042012864e-08,0.06867829531636839
0.438,7.888059042011909e-08,0.0686782953163559
0.439,7.888059042010952e-08,0.0686782953163434
0.44,7.888059042009992e-08,0.06867829531633089
0.441,7.888059042009037e-08,0.06867829531631839
0.442,7.88805904200808e-08,0.06867829531630588
0.443,7.88805904200712e-08,0.06867829531629337
0.444,7.888059042006165e-08,0.06867829531628088
0.445,7.888059042005208e-08,0.06867829531626837
0.446,7.888059042004249e-08,0.06867829531625587
0.447,7.888059042003293e-08,0.06867829531624337
0.448,7.888059042002335e-08,0.06867829531623086
0.449,7.888059042001377e-08,0.06867829531621834
0.45,7.88805904200042e-08,0.06867829531620585
0.451,7.888059041999463e-08,0.06867829531619335
0.452,7.888059041998505e-08,0.06867829531618085
0.453,7.888059041997548e-08,0.06867829531616834
0.454,7.888059041996591e-08,0.06867829531615584
0.455,7.888059041995633e-08,0.06867829531614333
0.456,7.888059041994676e-08,0.06867829531613083
0.457,7.888059041993719e-08,0.06867829531611833
0.458,7.888059041992761e-08,0.06867829531610582
0.459,7.888059041991804e-08,0.06867829531609332
0.46,7.888059041990847e-08,0.06867829531608081
0.461,7.888059041989889e-08,0.06867829531606832
0.462,7.888059041988932e-08,0.0686782953160558
0.463,7.888059041987974e-08,0.0686782953160433
0.464,7.888059041987017e-08,0.0686782953160308
0.465,7.88805904198606e-08,0.0686782953160183
0.466,7.888059041985102e-08,0.06867829531600579
0.467,7.888059041984145e-08,0.0686782953159933
0.468,7.888059041983187e-08,0.06867829531598078
0.469,7.88805904198223e-08,0.06867829531596828
0.47,7.888059041981273e-08,0.06867829531595578
0.471,7.888059041980315e-08,0.06867829531594327
0.472,7.888059041979358e-08,0.06867829531593078
0.473,7.888059041978401e-08,0.06867829531591828
0.474,7.888059041977443e-08,0.06867829531590577
0.475,7.888059041976486e-08,0.06867829531589326
0.476,7.888059041975528e-08,0.06867829531588075
0.477,7.88805904197457e-08,0.06867829531586825
0.478,7.888059041973614e-08,0.06867829531585576
0.479,7.888059041972656e-08,0.06867829531584325
0.48,7.888059041971699e-08,0.06867829531583075
0.481,7.888059041970742e-08,0.06867829531581825
0.482,7.888059041969784e-08,0.06867829531580573
0.483,7.888059041968827e-08,0.06867829531579323
0.484,7.88805904196787e-08,0.06867829531578074
0.485,7.888059041966912e-08,0.06867829531576823
0.486,7.888059041965955e-08,0.06867829531575573
0.487,7.888059041964998e-08,0.06867829531574322
0.488,7.888059041964038e-08,0.06867829531573072
0.489,7.888059041963081e-08,0.0686782953157182
0.49,7.888059041962126e-08,0.06867829531570571
0.491,7.888059041961166e-08,0.06867829531569321
0.492,7.88805904196021e-08,0.06867829531568072
0.493,7.888059041959254e-08,0.06867829531566821
0.494,7.888059041958294e-08,0.06867829531565571
0.495,7.888059041957337e-08,0.0686782953156432
0.496,7.88805904195638e-08,0.0686782953156307
0.497,7.888059041955422e-08,0.0686782953156182
0.498,7.888059041954466e-08,0.0686782953156057
0.499,7.888059041953509e-08,0.06867829531559319
0.5,7.88805904195255e-08,0.06867829531558069
0.501,7.888059041951594e-08,0.06867829531556818
0.502,7.888059041950637e-08,0.06867829531555568
0.503,7.888059041949678e-08,0.06867829531554318
0.504,7.888059041948722e-08,0.06867829531553067
0.505,7.888059041947765e-08,0.06867829531551818
0.506,7.888059041946806e-08,0.06867829531550566
0.507,7.88805904194585e-08,0.06867829531549316
0.508,7.888059041944891e-08,0.06867829531548066
0.509,7.888059041943935e-08,0.06867829531546815
0.51,7.888059041942978e-08,0.06867829531545565
0.511,7.88805904194202e-08,0.06867829531544316
0.512,7.888059041941063e-08,0.06867829531543065
0.513,7.888059041940106e-08,0.06867829531541814
0.514,7.888059041939147e-08,0.06867829531540563
0.515,7.888059041938189e-08,0.06867829531539313
0.516,7.888059041937232e-08,0.06867829531538062
0.517,7.888059041936275e-08,0.06867829531536813
0.518,7.888059041935317e-08,0.06867829531535563
0.519,7.88805904193436e-08,0.06867829531534313
0.52,7.888059041933404e-08,0.06867829531533061
0.521,7.888059041932445e-08,0.0686782953153181
0.522,7.888059041931488e-08,0.0686782953153056
0.523,7.888059041930532e-08,0.06867829531529311
0.524,7.888059041929573e-08,0.06867829531528061
0.525,7.888059041928616e-08,0.0686782953152681
0.526,7.88805904192766e-08,0.0686782953152556
0.527,7.888059041926701e-08,0.06867829531524308
0.528,7.888059041925743e-08,0.06867829531523059
0.529,7.888059041924788e-08,0.06867829531521809
0.53,7.88805904192383e-08,0.06867829531520558
0.531,7.888059041922871e-08,0.06867829531519308
0.532,7.888059041921916e-08,0.06867829531518058
0.533,7.888059041920957e-08,0.06867829531516807
0.534,7.888059041919999e-08,0.06867829531515557
0.535,7.888059041919044e-08,0.06867829531514306
0.536,7.888059041918084e-08,0.06867829531513056
0.537,7.888059041917127e-08,0.06867829531511806
0.538,7.88805904191617e-08,0.06867829531510555
0.539,7.888059041915212e-08,0.06867829531509305
0.54,7.888059041914255e-08,0.06867829531508055
0.541,7.888059041913298e-08,0.06867829531506804
0.542,7.88805904191234e-08,0.06867829531505554
0.543,7.888059041911383e-08,0.06867829531504303
0.544,7.888059041910426e-08,0.06867829531503053
0.545,7.888059041909468e-08,0.06867829531501804
0.546,7.888059041908511e-08,0.06867829531500552
0.547,7.888059041907554e-08,0.06867829531499302
0.548,7.888059041906596e-08,0.06867829531498051
0.549,7.88805904190564e-08,0.06867829531496801
0.55,7.888059041904682e-08,0.0686782953149555
0.551,7.888059041903724e-08,0.06867829531494302
0.552,7.888059041902767e-08,0.06867829531493051
0.553,7.88805904190181e-08,0.068678295314918
0.554,7.888059041900852e-08,0.06867829531490549
0.555,7.888059041899895e-08,0.06867829531489299
0.556,7.888059041898937e-08,0.06867829531488048
0.557,7.88805904189798e-08,0.068678295314868
0.558,7.888059041897023e-08,0.06867829531485549
0.559,7.888059041896065e-08,0.06867829531484297
0.56,7.888059041895108e-08,0.06867829531483048
0.561,7.888059041894151e-08,0.06867829531481799
0.562,7.888059041893193e-08,0.06867829531480549
0.563,7.888059041892235e-08,0.06867829531479298
0.564,7.888059041891278e-08,0.06867829531478048
0.565,7.888059041890321e-08,0.06867829531476796
0.566,7.888059041889363e-08,0.06867829531475546
0.567,7.888059041888406e-08,0.06867829531474297
0.568,7.888059041887449e-08,0.06867829531473046
0.569,7.888059041886491e-08,0.06867829531471796
0.57,7.888059041885534e-08,0.06867829531470546
0.571,7.888059041884577e-08,0.06867829531469295
0.572,7.888059041883619e-08,0.06867829531468043
0.573,7.888059041882662e-08,0.06867829531466794
0.574,7.888059041881705e-08,0.06867829531465544
0.575,7.888059041880747e-08,0.06867829531464294
0.576,7.888059041879789e-08,0.06867829531463043
0.577,7.888059041878832e-08,0.06867829531461793
0.578,7.888059041877875e-08,0.06867829531460543
0.579,7.888059041876917e-08,0.06867829531459292
0.58,7.88805904187596e-08,0.06867829531458042
0.581,7.888059041875003e-08,0.06867829531456791
0.582,7.888059041874045e-08,0.06867829531455541
0.583,7.888059041873088e-08,0.0686782953145429
0.584,7.888059041872131e-08,0.0686782953145304
0.585,7.888059041871173e-08,0.0686782953145179
0.586,7.888059041870216e-08,0.0686782953145054
0.587,7.888059041869259e-08,0.06867829531449289
0.588,7.888059041868301e-08,0.06867829531448039
0.589,7.888059041867344e-08,0.06867829531446788
0.59,7.888059041866386e-08,0.06867829531445539
0.591,7.888059041865429e-08,0.06867829531444287
0.592,7.888059041864472e-08,0.06867829531443037
0.593,7.888059041863514e-08,0.06867829531441787
0.594,7.888059041862557e-08,0.06867829531440536
0.595,7.8880590418616e-08,0.06867829531439286
0.596,7.888059041860642e-08,0.06867829531438037
0.597,7.888059041859685e-08,0.06867829531436785
0.598,7.888059041858728e-08,0.06867829531435535
0.599,7.88805904185777e-08,0.06867829531434284
0.6,7.888059041856813e-08,0.06867829531433034
0.601,7.888059041855856e-08,0.06867829531431785
0.602,7.888059041854898e-08,0.06867829531430535
0.603,7.88805904185394e-08,0.06867829531429284
0.604,7.888059041852983e-08,0.06867829531428032
0.605,7.888059041852026e-08,0.06867829531426782
0.606,7.888059041851068e-08,0.06867829531425532
0.607,7.888059041850111e-08,0.06867829531424283
0.608,7.888059041849154e-08,0.06867829531423032
0.609,7.888059041848196e-08,0.06867829531421782
0.61,7.888059041847239e-08,0.06867829531420531
0.611,7.888059041846282e-08,0.0686782953141928
0.612,7.888059041845324e-08,0.0686782953141803
0.613,7.888059041844367e-08,0.0686782953141678
0.614,7.88805904184341e-08,0.0686782953141553
0.615,7.888059041842452e-08,0.0686782953141428
0.616,7.888059041841494e-08,0.06867829531413029
0.617,7.888059041840537e-08,0.06867829531411779
0.618,7.88805904183958e-08,0.06867829531410527
0.619,7.888059041838622e-08,0.06867829531409278
0.62,7.888059041837665e-08,0.06867829531408028
0.621,7.888059041836708e-08,0.06867829531406777
0.622,7.88805904183575e-08,0.06867829531405527
0.623,7.888059041834793e-08,0.06867829531404276
0.624,7.888059041833835e-08,0.06867829531403026
0.625,7.888059041832878e-08,0.06867829531401776
0.626,7.888059041831921e-08,0.06867829531400525
0.627,7.888059041830963e-08,0.06867829531399275
0.628,7.888059041830006e-08,0.06867829531398024
0.629,7.888059041829049e-08,0.06867829531396775
0.63,7.888059041828091e-08,0.06867829531395525
0.631,7.888059041827134e-08,0.06867829531394275
0.632,7.888059041826177e-08,0.06867829531393024
0.633,7.888059041825219e-08,0.06867829531391774
0.634,7.888059041824262e-08,0.06867829531390525
0.635,7.888059041823305e-08,0.06867829531389273
0.636,7.888059041822347e-08,0.06867829531388023
0.637,7.88805904182139e-08,0.06867829531386772
0.638,7.888059041820433e-08,0.06867829531385522
0.639,7.888059041819475e-08,0.06867829531384272
0.64,7.888059041818518e-08,0.06867829531383023
0.641,7.88805904181756e-08,0.06867829531381772
0.642,7.888059041816602e-08,0.0686782953138052
0.643,7.888059041815646e-08,0.0686782953137927
0.644,7.888059041814688e-08,0.06867829531378022
0.645,7.88805904181373e-08,0.06867829531376772
0.646,7.888059041812774e-08,0.06867829531375522
0.647,7.888059041811816e-08,0.0686782953137427
0.648,7.888059041810858e-08,0.0686782953137302
0.649,7.888059041809902e-08,0.06867829531371769
0.65,7.888059041808944e-08,0.0686782953137052
0.651,7.888059041807986e-08,0.0686782953136927
0.652,7.88805904180703e-08,0.0686782953136802
0.653,7.888059041806072e-08,0.06867829531366769
0.654,7.888059041805114e-08,0.06867829531365517
0.655,7.888059041804157e-08,0.06867829531364267
0.656,7.8880590418032e-08,0.06867829531363018
0.657,7.888059041802242e-08,0.06867829531361767
0.658,7.888059041801285e-08,0.06867829531360517
0.659,7.888059041800328e-08,0.06867829531359267
0.66,7.88805904179937e-08,0.06867829531358016
0.661,7.888059041798413e-08,0.06867829531356764
0.662,7.888059041797456e-08,0.06867829531355515
0.663,7.888059041796498e-08,0.06867829531354265
0.664,7.88805904179554e-08,0.06867829531353015
0.665,7.888059041794584e-08,0.06867829531351764
0.666,7.888059041793626e-08,0.06867829531350514
0.667,7.888059041792668e-08,0.06867829531349263
0.668,7.888059041791711e-08,0.06867829531348013
0.669,7.888059041790754e-08,0.06867829531346763
0.67,7.888059041789796e-08,0.06867829531345512
0.671,7.888059041788839e-08,0.06867829531344262
0.672,7.888059041787882e-08,0.06867829531343012
0.673,7.888059041786924e-08,0.06867829531341761
0.674,7.888059041785967e-08,0.06867829531340511
0.675,7.888059041785009e-08,0.0686782953133926
0.676,7.888059041784052e-08,0.0686782953133801
0.677,7.888059041783095e-08,0.0686782953133676
0.678,7.888059041782137e-08,0.06867829531335509
0.679,7.88805904178118e-08,0.0686782953133426
0.68,7.888059041780223e-08,0.06867829531333008
0.681,7.888059041779265e-08,0.06867829531331758
0.682,7.888059041778308e-08,0.06867829531330508
0.683,7.888059041777351e-08,0.06867829531329257
0.684,7.888059041776391e-08,0.06867829531328008
0.685,7.888059041775436e-08,0.06867829531326758
0.686,7.888059041774479e-08,0.06867829531325507
0.687,7.88805904177352e-08,0.06867829531324256
0.688,7.888059041772564e-08,0.06867829531323005
0.689,7.888059041771607e-08,0.06867829531321755
0.69,7.888059041770647e-08,0.06867829531320506
0.691,7.888059041769692e-08,0.06867829531319256
0.692,7.888059041768735e-08,0.06867829531318005
0.693,7.888059041767775e-08,0.06867829531316755
0.694,7.888059041766819e-08,0.06867829531315503
0.695,7.888059041765862e-08,0.06867829531314253
0.696,7.888059041764904e-08,0.06867829531313004
0.697,7.888059041763947e-08,0.06867829531311753
0.698,7.88805904176299e-08,0.06867829531310503
0.699,7.888059041762032e-08,0.06867829531309252
0.7,7.888059041761075e-08,0.06867829531308002
0.701,7.888059041760118e-08,0.0686782953130675
0.702,7.88805904175916e-08,0.06867829531305501
0.703,7.888059041758203e-08,0.06867829531304251
0.704,7.888059041757246e-08,0.06867829531303
0.705,7.888059041756288e-08,0.0686782953130175
0.706,7.888059041755331e-08,0.068678295313005
0.707,7.888059041754373e-08,0.0686782953129925
0.708,7.888059041753416e-08,0.06867829531297999
0.709,7.888059041752459e-08,0.06867829531296749
0.71,7.8880590417515e-08,0.06867829531295498
0.711,7.888059041750544e-08,0.06867829531294248
0.712,7.888059041749587e-08,0.06867829531292997
0.713,7.888059041748629e-08,0.06867829531291748
0.714,7.888059041747672e-08,0.06867829531290498
0.715,7.888059041746713e-08,0.06867829531289248
0.716,7.888059041745757e-08,0.06867829531287997
0.717,7.8880590417448e-08,0.06867829531286748
0.718,7.888059041743842e-08,0.06867829531285496
0.719,7.888059041742885e-08,0.06867829531284246
0.72,7.888059041741926e-08,0.06867829531282996
0.721,7.88805904174097e-08,0.06867829531281745
0.722,7.888059041740013e-08,0.06867829531280495
0.723,7.888059041739054e-08,0.06867829531279246
0.724,7.888059041738098e-08,0.06867829531277996
0.725,7.888059041737141e-08,0.06867829531276744
0.726,7.888059041736182e-08,0.06867829531275493
0.727,7.888059041735226e-08,0.06867829531274243
0.728,7.888059041734269e-08,0.06867829531272993
0.729,7.88805904173331e-08,0.06867829531271744
0.73,7.888059041732354e-08,0.06867829531270493
0.731,7.888059041731397e-08,0.06867829531269243
0.732,7.888059041730439e-08,0.06867829531267991
0.733,7.88805904172948e-08,0.0686782953126674
0.734,7.888059041728525e-08,0.0686782953126549
0.735,7.888059041727565e-08,0.06867829531264241
0.736,7.888059041726608e-08,0.06867829531262991
0.737,7.888059041725653e-08,0.0686782953126174
0.738,7.888059041724693e-08,0.0686782953126049
0.739,7.888059041723736e-08,0.06867829531259238
0.74,7.888059041722781e-08,0.06867829531257989
0.741,7.888059041721821e-08,0.06867829531256739
0.742,7.888059041720864e-08,0.06867829531255489
0.743,7.888059041719908e-08,0.06867829531254238
0.744,7.888059041718949e-08,0.06867829531252988
0.745,7.888059041717992e-08,0.06867829531251736
0.746,7.888059041717036e-08,0.06867829531250487
0.747,7.888059041716077e-08,0.06867829531249237
0.748,7.88805904171512e-08,0.06867829531247986
0.749,7.888059041714164e-08,0.06867829531246736
0.75,7.888059041713205e-08,0.06867829531245485
0.751,7.888059041712249e-08,0.06867829531244235
0.752,7.888059041711292e-08,0.06867829531242985
0.753,7.888059041710333e-08,0.06867829531241734
0.754,7.888059041709377e-08,0.06867829531240484
0.755,7.888059041708418e-08,0.06867829531239233
0.756,7.888059041707461e-08,0.06867829531237983
0.757,7.888059041706505e-08,0.06867829531236733
0.758,7.888059041705546e-08,0.06867829531235482
0.759,7.888059041704588e-08,0.06867829531234232
0.76,7.888059041703633e-08,0.06867829531232982
0.761,7.888059041702674e-08,0.06867829531231731
0.762,7.888059041701716e-08,0.06867829531230481
0.763,7.888059041700759e-08,0.06867829531229232
0.764,7.888059041699802e-08,0.0686782953122798
0.765,7.888059041698844e-08,0.0686782953122673
0.766,7.888059041697887e-08,0.06867829531225479
0.767,7.88805904169693e-08,0.06867829531224229
0.768,7.888059041695972e-08,0.06867829531222978
0.769,7.888059041695015e-08,0.0686782953122173
0.77,7.888059041694058e-08,0.06867829531220479
0.771,7.8880590416931e-08,0.06867829531219227
0.772,7.888059041692142e-08,0.06867829531217977
0.773,7.888059041691186e-08,0.06867829531216726
0.774,7.888059041690228e-08,0.06867829531215476
0.775,7.88805904168927e-08,0.06867829531214227
0.776,7.888059041688315e-08,0.06867829531212977
0.777,7.888059041687356e-08,0.06867829531211726
0.778,7.888059041686398e-08,0.06867829531210475
0.779,7.888059041685443e-08,0.06867829531209224
0.78,7.888059041684484e-08,0.06867829531207975
0.781,7.888059041683526e-08,0.06867829531206725
0.782,7.88805904168257e-08,0.06867829531205476
0.783,7.888059041681611e-08,0.06867829531204224
0.784,7.888059041680654e-08,0.06867829531202974
0.785,7.888059041679697e-08,0.06867829531201725
0.786,7.888059041678739e-08,0.06867829531200474
0.787,7.888059041677782e-08,0.06867829531199224
0.788,7.888059041676825e-08,0.06867829531197973
0.789,7.888059041675867e-08,0.06867829531196723
0.79,7.88805904167491e-08,0.06867829531195473
0.791,7.888059041673953e-08,0.06867829531194222
0.792,7.888059041672995e-08,0.06867829531192972
0.793,7.888059041672038e-08,0.06867829531191721
0.794,7.888059041671081e-08,0.06867829531190471
0.795,7.888059041670123e-08,0.0686782953118922
0.796,7.888059041669166e-08,0.0686782953118797
0.797,7.88805904166821e-08,0.0686782953118672
0.798,7.88805904166725e-08,0.0686782953118547
0.799,7.888059041666294e-08,0.06867829531184219
0.8,7.888059041665337e-08,0.06867829531182969
0.801,7.888059041664378e-08,0.06867829531181718
0.802,7.888059041663422e-08,0.06867829531180468
0.803,7.888059041662464e-08,0.06867829531179218
0.804,7.888059041661506e-08,0.06867829531177967
0.805,7.88805904166055e-08,0.06867829531176717
0.806,7.888059041659592e-08,0.06867829531175466
0.807,7.888059041658634e-08,0.06867829531174216
0.808,7.888059041657678e-08,0.06867829531172967
0.809,7.88805904165672e-08,0.06867829531171715
0.81,7.888059041655762e-08,0.06867829531170465
0.811,7.888059041654805e-08,0.06867829531169214
0.812,7.888059041653848e-08,0.06867829531167964
0.813,7.88805904165289e-08,0.06867829531166715
0.814,7.888059041651933e-08,0.06867829531165465
0.815,7.888059041650976e-08,0.06867829531164214
0.816,7.888059041650018e-08,0.06867829531162963
0.817,7.888059041649061e-08,0.06867829531161712
0.818,7.888059041648104e-08,0.06867829531160462
0.819,7.888059041647146e-08,0.06867829531159213
0.82,7.888059041646189e-08,0.06867829531157962
0.821,7.888059041645232e-08,0.06867829531156712
0.822,7.888059041644274e-08,0.06867829531155462
0.823,7.888059041643316e-08,0.0686782953115421
0.824,7.888059041642359e-08,0.0686782953115296
0.825,7.888059041641402e-08,0.0686782953115171
0.826,7.888059041640444e-08,0.0686782953115046
0.827,7.888059041639487e-08,0.0686782953114921
0.828,7.88805904163853e-08,0.06867829531147959
0.829,7.888059041637572e-08,0.06867829531146709
0.83,7.888059041636615e-08,0.06867829531145457
0.831,7.888059041635657e-08,0.06867829531144208
0.832,7.8880590416347e-08,0.06867829531142958
0.833,7.888059041633743e-08,0.06867829531141707
0.834,7.888059041632785e-08,0.06867829531140457
0.835,7.888059041631828e-08,0.06867829531139207
0.836,7.888059041630871e-08,0.06867829531137956
0.837,7.888059041629913e-08,0.06867829531136706
0.838,7.888059041628956e-08,0.06867829531135455
0.839,7.888059041627999e-08,0.06867829531134205
0.84,7.888059041627041e-08,0.06867829531132955
0.841,7.888059041626084e-08,0.06867829531131704
0.842,7.888059041625127e-08,0.06867829531130454
0.843,7.888059041624168e-08,0.06867829531129203
0.844,7.888059041623212e-08,0.06867829531127953
0.845,7.888059041622255e-08,0.06867829531126703
0.846,7.888059041621296e-08,0.06867829531125452
0.847,7.88805904162034e-08,0.06867829531124202
0.848,7.888059041619383e-08,0.06867829531122953
0.849,7.888059041618424e-08,0.06867829531121701
0.85,7.888059041617467e-08,0.06867829531120452
0.851,7.88805904161651e-08,0.06867829531119202
0.852,7.888059041615552e-08,0.06867829531117953
0.853,7.888059041614595e-08,0.06867829531116702
0.854,7.888059041613638e-08,0.0686782953111545
0.855,7.88805904161268e-08,0.068678295311142
0.856,7.888059041611723e-08,0.0686782953111295
0.857,7.888059041610766e-08,0.068678295311117
0.858,7.888059041609808e-08,0.0686782953111045
0.859,7.888059041608851e-08,0.068678295311092
0.86,7.888059041607894e-08,0.0686782953110795
0.861,7.888059041606936e-08,0.06867829531106698
0.862,7.888059041605979e-08,0.06867829531105447
0.863,7.888059041605021e-08,0.06867829531104197
0.864,7.888059041604064e-08,0.06867829531102948
0.865,7.888059041603107e-08,0.06867829531101698
0.866,7.888059041602149e-08,0.06867829531100447
0.867,7.888059041601192e-08,0.06867829531099197
0.868,7.888059041600235e-08,0.06867829531097945
0.869,7.888059041599277e-08,0.06867829531096696
0.87,7.88805904159832e-08,0.06867829531095446
0.871,7.888059041597362e-08,0.06867829531094195
0.872,7.888059041596405e-08,0.06867829531092945
0.873,7.888059041595448e-08,0.06867829531091695
0.874,7.88805904159449e-08,0.06867829531090443
0.875,7.888059041593533e-08,0.06867829531089194
0.876,7.888059041592575e-08,0.06867829531087943
0.877,7.888059041591618e-08,0.06867829531086693
0.878,7.888059041590661e-08,0.06867829531085443
0.879,7.888059041589703e-08,0.06867829531084192
0.88,7.888059041588746e-08,0.06867829531082942
0.881,7.888059041587789e-08,0.06867829531081691
0.882,7.888059041586831e-08,0.06867829531080441
0.883,7.888059041585874e-08,0.0686782953107919
0.884,7.888059041584917e-08,0.0686782953107794
0.885,7.888059041583959e-08,0.0686782953107669
0.886,7.888059041583002e-08,0.06867829531075441
0.887,7.888059041582045e-08,0.06867829531074189
0.888,7.888059041581087e-08,0.06867829531072939
0.889,7.888059041580129e-08,0.06867829531071688
0.89,7.888059041579173e-08,0.06867829531070438
0.891,7.888059041578213e-08,0.06867829531069188
0.892,7.888059041577257e-08,0.06867829531067939
0.893,7.888059041576301e-08,0.06867829531066687
0.894,7.888059041575342e-08,0.06867829531065436
0.895,7.888059041574385e-08,0.06867829531064186
0.896,7.888059041573429e-08,0.06867829531062936
0.897,7.88805904157247e-08,0.06867829531061685
0.898,7.888059041571513e-08,0.06867829531060436
0.899,7.888059041570557e-08,0.06867829531059186
0.9,7.888059041569598e-08,0.06867829531057934
0.901,7.888059041568641e-08,0.06867829531056684
0.902,7.888059041567684e-08,0.06867829531055433
0.903,7.888059041566726e-08,0.06867829531054183
0.904,7.888059041565769e-08,0.06867829531052934
0.905,7.888059041564812e-08,0.06867829531051683
0.906,7.888059041563854e-08,0.06867829531050433
0.907,7.888059041562897e-08,0.06867829531049181
0.908,7.88805904156194e-08,0.06867829531047931
0.909,7.888059041560982e-08,0.06867829531046682
0.91,7.888059041560025e-08,0.06867829531045432
0.911,7.888059041559067e-08,0.06867829531044181
0.912,7.88805904155811e-08,0.06867829531042931
0.913,7.888059041557153e-08,0.0686782953104168
0.914,7.888059041556195e-08,0.06867829531040429
0.915,7.888059041555236e-08,0.0686782953103918
0.916,7.888059041554281e-08,0.06867829531037929
0.917,7.888059041553323e-08,0.06867829531036679
0.918,7.888059041552364e-08,0.06867829531035428
0.919,7.888059041551409e-08,0.0686782953103418
0.92,7.88805904155045e-08,0.06867829531032929
0.921,7.888059041549492e-08,0.06867829531031679
0.922,7.888059041548536e-08,0.06867829531030428
0.923,7.888059041547579e-08,0.06867829531029178
0.924,7.88805904154662e-08,0.06867829531027927
0.925,7.888059041545664e-08,0.06867829531026677
0.926,7.888059041544707e-08,0.06867829531025427
0.927,7.888059041543749e-08,0.06867829531024176
0.928,7.888059041542792e-08,0.06867829531022926
0.929,7.888059041541835e-08,0.06867829531021676
0.93,7.888059041540877e-08,0.06867829531020425
0.931,7.888059041539918e-08,0.06867829531019175
0.932,7.888059041538963e-08,0.06867829531017924
0.933,7.888059041538005e-08,0.06867829531016674
0.934,7.888059041537046e-08,0.06867829531015424
0.935,7.888059041536091e-08,0.06867829531014173
0.936,7.888059041535133e-08,0.06867829531012923
0.937,7.888059041534174e-08,0.06867829531011674
0.938,7.888059041533219e-08,0.06867829531010422
0.939,7.88805904153226e-08,0.06867829531009172
0.94,7.888059041531302e-08,0.06867829531007921
0.941,7.888059041530346e-08,0.06867829531006671
0.942,7.888059041529387e-08,0.06867829531005422
0.943,7.88805904152843e-08,0.06867829531004171
0.944,7.888059041527474e-08,0.06867829531002921
0.945,7.888059041526515e-08,0.0686782953100167
0.946,7.888059041525558e-08,0.06867829531000419
0.947,7.888059041524602e-08,0.06867829530999169
0.948,7.888059041523643e-08,0.0686782953099792
0.949,7.888059041522686e-08,0.06867829530996669
0.95,7.88805904152173e-08,0.06867829530995419
0.951,7.888059041520771e-08,0.06867829530994168
0.952,7.888059041519815e-08,0.06867829530992917
0.953,7.888059041518858e-08,0.06867829530991666
0.954,7.888059041517898e-08,0.06867829530990417
0.955,7.888059041516943e-08,0.06867829530989167
0.956,7.888059041515986e-08,0.06867829530987916
0.957,7.888059041515026e-08,0.06867829530986666
0.958,7.88805904151407e-08,0.06867829530985416
0.959,7.888059041513112e-08,0.06867829530984165
0.96,7.888059041512154e-08,0.06867829530982915
0.961,7.888059041511199e-08,0.06867829530981664
0.962,7.88805904151024e-08,0.06867829530980414
0.963,7.888059041509282e-08,0.06867829530979164
0.964,7.888059041508327e-08,0.06867829530977913
0.965,7.888059041507368e-08,0.06867829530976663
0.966,7.88805904150641e-08,0.06867829530975413
0.967,7.888059041505453e-08,0.06867829530974162
0.968,7.888059041504496e-08,0.06867829530972912
0.969,7.888059041503538e-08,0.06867829530971661
0.97,7.888059041502581e-08,0.06867829530970411
0.971,7.888059041501624e-08,0.0686782953096916
0.972,7.888059041500666e-08,0.0686782953096791
0.973,7.88805904149971e-08,0.0686782953096666
0.974,7.888059041498753e-08,0.0686782953096541
0.975,7.888059041497794e-08,0.06867829530964159
0.976,7.888059041496837e-08,0.06867829530962909
0.977,7.88805904149588e-08,0.0686782953096166
0.978,7.888059041494922e-08,0.06867829530960408
0.979,7.888059041493964e-08,0.06867829530959157
0.98,7.888059041493007e-08,0.06867829530957907
0.981,7.88805904149205e-08,0.06867829530956657
0.982,7.888059041491092e-08,0.06867829530955408
0.983,7.888059041490135e-08,0.06867829530954157
0.984,7.888059041489178e-08,0.06867829530952906
0.985,7.88805904148822e-08,0.06867829530951655
0.986,7.888059041487263e-08,0.06867829530950405
0.987,7.888059041486306e-08,0.06867829530949154
0.988,7.888059041485348e-08,0.06867829530947907
0.989,7.888059041484391e-08,0.06867829530946656
0.99,7.888059041483433e-08,0.06867829530945405
0.991,7.888059041482476e-08,0.06867829530944154
0.992,7.88805904148152e-08,0.06867829530942905
0.993,7.888059041480561e-08,0.06867829530941655
0.994,7.888059041479604e-08,0.06867829530940404
0.995,7.888059041478647e-08,0.06867829530939154
0.996,7.888059041477689e-08,0.06867829530937904
0.997,7.888059041476732e-08,0.06867829530936652
0.998,7.888059041475775e-08,0.06867829530935403
0.999,7.888059041474816e-08,0.06867829530934152
1.0,7.88805904147386e-08,0.06867829530932902
1.001,7.888059041472903e-08,0.06867829530931652
1.002,7.888059041471944e-08,0.06867829530930401
1.003,7.888059041470988e-08,0.0686782953092915
1.004,7.888059041470031e-08,0.068678295309279
1.005,7.888059041469072e-08,0.0686782953092665
1.006,7.888059041468115e-08,0.068678295309254
1.007,7.88805904146716e-08,0.0686782953092415
1.008,7.8880590414662e-08,0.06867829530922899
1.009,7.888059041465243e-08,0.06867829530921649
1.01,7.888059041464286e-08,0.06867829530920398
1.011,7.888059041463328e-08,0.06867829530919148
1.012,7.888059041462371e-08,0.06867829530917897
1.013,7.888059041461414e-08,0.06867829530916647
1.014,7.888059041460456e-08,0.06867829530915397
1.015,7.888059041459499e-08,0.06867829530914148
1.016,7.888059041458542e-08,0.06867829530912896
1.017,7.888059041457584e-08,0.06867829530911645
1.018,7.888059041456627e-08,0.06867829530910395
1.019,7.888059041455669e-08,0.06867829530909145
1.02,7.888059041454712e-08,0.06867829530907894
1.021,7.888059041453755e-08,0.06867829530906645
1.022,7.888059041452797e-08,0.06867829530905394
1.023,7.88805904145184e-08,0.06867829530904143
1.024,7.888059041450883e-08,0.06867829530902893
1.025,7.888059041449925e-08,0.06867829530901642
1.026,7.888059041448968e-08,0.06867829530900392
1.027,7.888059041448011e-08,0.06867829530899143
1.028,7.888059041447053e-08,0.06867829530897893
1.029,7.888059041446096e-08,0.06867829530896641
1.03,7.888059041445138e-08,0.0686782953089539
1.031,7.888059041444181e-08,0.0686782953089414
1.032,7.888059041443223e-08,0.06867829530892891
1.033,7.888059041442266e-08,0.0686782953089164
1.034,7.888059041441309e-08,0.0686782953089039
1.035,7.888059041440351e-08,0.0686782953088914
1.036,7.888059041439394e-08,0.06867829530887888
1.037,7.888059041438437e-08,0.06867829530886638
1.038,7.888059041437479e-08,0.06867829530885389
1.039,7.888059041436522e-08,0.06867829530884138
1.04,7.888059041435565e-08,0.06867829530882888
1.041,7.888059041434607e-08,0.06867829530881638
1.042,7.88805904143365e-08,0.06867829530880387
1.043,7.888059041432693e-08,0.06867829530879135
1.044,7.888059041431735e-08,0.06867829530877886
1.045,7.888059041430777e-08,0.06867829530876636
1.046,7.888059041429821e-08,0.06867829530875386
1.047,7.888059041428863e-08,0.06867829530874135
1.048,7.888059041427905e-08,0.06867829530872885
1.049,7.888059041426949e-08,0.06867829530871634
1.05,7.88805904142599e-08,0.06867829530870384
1.051,7.888059041425033e-08,0.06867829530869134
1.052,7.888059041424077e-08,0.06867829530867883
1.053,7.888059041423118e-08,0.06867829530866633
1.054,7.888059041422161e-08,0.06867829530865383
1.055,7.888059041421205e-08,0.06867829530864134
1.056,7.888059041420246e-08,0.06867829530862883
1.057,7.888059041419289e-08,0.06867829530861633
1.058,7.888059041418332e-08,0.06867829530860382
1.059,7.888059041417374e-08,0.06867829530859132
1.06,7.888059041416417e-08,0.06867829530857882
1.061,7.88805904141546e-08,0.06867829530856631
1.062,7.888059041414502e-08,0.06867829530855381
1.063,7.888059041413545e-08,0.0686782953085413
1.064,7.888059041412588e-08,0.0686782953085288
1.065,7.88805904141163e-08,0.06867829530851631
1.066,7.888059041410673e-08,0.0686782953085038
1.067,7.888059041409716e-08,0.06867829530849129
1.068,7.888059041408758e-08,0.06867829530847878
1.069,7.888059041407801e-08,0.06867829530846628
1.07,7.888059041406843e-08,0.06867829530845378
1.071,7.888059041405886e-08,0.06867829530844129
1.072,7.888059041404929e-08,0.06867829530842878
1.073,7.888059041403971e-08,0.06867829530841628
1.074,7.888059041403013e-08,0.06867829530840378
1.075,7.888059041402057e-08,0.06867829530839127
1.076,7.888059041401099e-08,0.06867829530837878
1.077,7.888059041400141e-08,0.06867829530836628
1.078,7.888059041399184e-08,0.06867829530835377
1.079,7.888059041398227e-08,0.06867829530834126
1.08,7.888059041397269e-08,0.06867829530832875
1.081,7.888059041396312e-08,0.06867829530831626
1.082,7.888059041395355e-08,0.06867829530830376
1.083,7.888059041394397e-08,0.06867829530829125
1.084,7.88805904139344e-08,0.06867829530827875
1.085,7.888059041392483e-08,0.06867829530826625
1.086,7.888059041391525e-08,0.06867829530825373
1.087,7.888059041390568e-08,0.06867829530824124
1.088,7.888059041389611e-08,0.06867829530822873
1.089,7.888059041388653e-08,0.06867829530821623
1.09,7.888059041387695e-08,0.06867829530820373
1.091,7.888059041386739e-08,0.06867829530819122
1.092,7.888059041385781e-08,0.06867829530817872
1.093,7.888059041384823e-08,0.06867829530816622
1.094,7.888059041383867e-08,0.06867829530815371
1.095,7.888059041382909e-08,0.06867829530814121
1.096,7.88805904138195e-08,0.0686782953081287
1.097,7.888059041380994e-08,0.0686782953081162
1.098,7.888059041380037e-08,0.0686782953081037
1.099,7.888059041379079e-08,0.06867829530809119
1.1,7.888059041378122e-08,0.06867829530807869
1.101,7.888059041377164e-08,0.06867829530806618
1.102,7.888059041376207e-08,0.06867829530805368
1.103,7.88805904137525e-08,0.06867829530804118
1.104,7.888059041374292e-08,0.06867829530802869
1.105,7.888059041373335e-08,0.06867829530801617
1.106,7.888059041372378e-08,0.06867829530800366
1.107,7.88805904137142e-08,0.06867829530799116
1.108,7.888059041370463e-08,0.06867829530797866
1.109,7.888059041369506e-08,0.06867829530796615
1.11,7.888059041368548e-08,0.06867829530795366
1.111,7.888059041367591e-08,0.06867829530794116
1.112,7.888059041366634e-08,0.06867829530792864
1.113,7.888059041365676e-08,0.06867829530791614
1.114,7.888059041364719e-08,0.06867829530790363
1.115,7.888059041363762e-08,0.06867829530789113
1.116,7.888059041362804e-08,0.06867829530787864
1.117,7.888059041361847e-08,0.06867829530786614
1.118,7.888059041360889e-08,0.06867829530785363
1.119,7.888059041359932e-08,0.06867829530784111
1.12,7.888059041358975e-08,0.06867829530782861
1.121,7.888059041358017e-08,0.06867829530781612
1.122,7.88805904135706e-08,0.06867829530780362
1.123,7.888059041356102e-08,0.06867829530779111
1.124,7.888059041355145e-08,0.06867829530777861
1.125,7.888059041354188e-08,0.0686782953077661
1.126,7.88805904135323e-08,0.06867829530775359
1.127,7.888059041352273e-08,0.0686782953077411
1.128,7.888059041351315e-08,0.06867829530772859
1.129,7.888059041350358e-08,0.06867829530771609
1.13,7.888059041349401e-08,0.06867829530770359
1.131,7.888059041348443e-08,0.06867829530769108
1.132,7.888059041347486e-08,0.06867829530767856
1.133,7.888059041346529e-08,0.06867829530766607
1.134,7.88805904134557e-08,0.06867829530765357
1.135,7.888059041344614e-08,0.06867829530764107
1.136,7.888059041343655e-08,0.06867829530762856
1.137,7.888059041342699e-08,0.06867829530761606
1.138,7.88805904134174e-08,0.06867829530760355
1.139,7.888059041340784e-08,0.06867829530759105
1.14,7.888059041339827e-08,0.06867829530757856
1.141,7.888059041338868e-08,0.06867829530756606
1.142,7.888059041337912e-08,0.06867829530755355
1.143,7.888059041336955e-08,0.06867829530754105
1.144,7.888059041335996e-08,0.06867829530752854
1.145,7.88805904133504e-08,0.06867829530751604
1.146,7.888059041334083e-08,0.06867829530750354
1.147,7.888059041333124e-08,0.06867829530749103
1.148,7.888059041332168e-08,0.06867829530747853
1.149,7.888059041331211e-08,0.06867829530746604
1.15,7.888059041330253e-08,0.06867829530745352
1.151,7.888059041329296e-08,0.06867829530744102
1.152,7.888059041328337e-08,0.06867829530742851
1.153,7.88805904132738e-08,0.06867829530741601
1.154,7.888059041326424e-08,0.06867829530740352
1.155,7.888059041325465e-08,0.06867829530739102
1.156,7.888059041324509e-08,0.06867829530737851
1.157,7.888059041323552e-08,0.068678295307366
1.158,7.888059041322593e-08,0.06867829530735349
1.159,7.888059041321637e-08,0.06867829530734099
1.16,7.88805904132068e-08,0.0686782953073285
1.161,7.888059041319722e-08,0.06867829530731599
1.162,7.888059041318763e-08,0.06867829530730349
1.163,7.888059041317808e-08,0.06867829530729097
1.164,7.88805904131685e-08,0.06867829530727847
1.165,7.888059041315891e-08,0.06867829530726596
1.166,7.888059041314934e-08,0.06867829530725347
1.167,7.888059041313978e-08,0.06867829530724097
1.168,7.88805904131302e-08,0.06867829530722847
1.169,7.888059041312062e-08,0.06867829530721596
1.17,7.888059041311106e-08,0.06867829530720344
1.171,7.888059041310147e-08,0.06867829530719095
1.172,7.88805904130919e-08,0.06867829530717845
1.173,7.888059041308234e-08,0.06867829530716595
1.174,7.888059041307275e-08,0.06867829530715344
1.175,7.888059041306319e-08,0.06867829530714094
1.176,7.888059041305362e-08,0.06867829530712843
1.177,7.888059041304403e-08,0.06867829530711593
1.178,7.888059041303445e-08,0.06867829530710343
1.179,7.888059041302488e-08,0.06867829530709092
1.18,7.888059041301531e-08,0.06867829530707842
1.181,7.888059041300573e-08,0.06867829530706591
1.182,7.888059041299616e-08,0.06867829530705341
1.183,7.88805904129866e-08,0.0686782953070409
1.184,7.888059041297701e-08,0.0686782953070284
1.185,7.888059041296744e-08,0.0686782953070159
1.186,7.888059041295786e-08,0.0686782953070034
1.187,7.88805904129483e-08,0.06867829530699089
1.188,7.888059041293872e-08,0.06867829530697839
1.189,7.888059041292914e-08,0.06867829530696588
1.19,7.888059041291957e-08,0.06867829530695338
1.191,7.888059041291e-08,0.06867829530694088
1.192,7.888059041290042e-08,0.06867829530692837
1.193,7.888059041289085e-08,0.06867829530691587
1.194,7.888059041288129e-08,0.06867829530690338
1.195,7.88805904128717e-08,0.06867829530689087
1.196,7.888059041286213e-08,0.06867829530687836
1.197,7.888059041285257e-08,0.06867829530686585
1.198,7.888059041284298e-08,0.06867829530685335
1.199,7.888059041283341e-08,0.06867829530684084
1.2,7.888059041282385e-08,0.06867829530682835
1.201,7.888059041281425e-08,0.06867829530681585
1.202,7.88805904128047e-08,0.06867829530680335
1.203,7.888059041279513e-08,0.06867829530679083
1.204,7.888059041278553e-08,0.06867829530677833
1.205,7.888059041277598e-08,0.06867829530676582
1.206,7.888059041276639e-08,0.06867829530675333
1.207,7.888059041275681e-08,0.06867829530674083
1.208,7.888059041274726e-08,0.06867829530672832
1.209,7.888059041273767e-08,0.06867829530671582
1.21,7.888059041272809e-08,0.06867829530670333
1.211,7.888059041271854e-08,0.06867829530669083
1.212,7.888059041270895e-08,0.06867829530667832
1.213,7.888059041269937e-08,0.06867829530666582
1.214,7.88805904126898e-08,0.06867829530665331
1.215,7.888059041268023e-08,0.0686782953066408
1.216,7.888059041267065e-08,0.0686782953066283
1.217,7.888059041266108e-08,0.0686782953066158
1.218,7.888059041265151e-08,0.0686782953066033
1.219,7.888059041264193e-08,0.0686782953065908
1.22,7.888059041263236e-08,0.06867829530657829
1.221,7.88805904126228e-08,0.06867829530656579
1.222,7.888059041261321e-08,0.06867829530655328
1.223,7.888059041260364e-08,0.06867829530654078
1.224,7.888059041259407e-08,0.06867829530652828
1.225,7.888059041258449e-08,0.06867829530651577
1.226,7.888059041257491e-08,0.06867829530650327
1.227,7.888059041256534e-08,0.06867829530649076
1.228,7.888059041255577e-08,0.06867829530647826
1.229,7.888059041254619e-08,0.06867829530646576
1.23,7.888059041253662e-08,0.06867829530645325
1.231,7.888059041252705e-08,0.06867829530644075
1.232,7.888059041251747e-08,0.06867829530642824
1.233,7.88805904125079e-08,0.06867829530641575
1.234,7.888059041249833e-08,0.06867829530640324
1.235,7.888059041248875e-08,0.06867829530639073
1.236,7.888059041247918e-08,0.06867829530637823
1.237,7.88805904124696e-08,0.06867829530636572
1.238,7.888059041246003e-08,0.06867829530635322
1.239,7.888059041245046e-08,0.06867829530634073
1.24,7.888059041244088e-08,0.06867829530632823
1.241,7.888059041243131e-08,0.06867829530631571
1.242,7.888059041242174e-08,0.0686782953063032
1.243,7.888059041241216e-08,0.0686782953062907
1.244,7.888059041240259e-08,0.06867829530627821
1.245,7.888059041239302e-08,0.06867829530626571
1.246,7.888059041238343e-08,0.0686782953062532
1.247,7.888059041237387e-08,0.0686782953062407
1.248,7.88805904123643e-08,0.06867829530622818
1.249,7.888059041235471e-08,0.06867829530621568
1.25,7.888059041234515e-08,0.06867829530620319
1.251,7.888059041233558e-08,0.06867829530619068
1.252,7.888059041232599e-08,0.06867829530617818
1.253,7.888059041231642e-08,0.06867829530616568
1.254,7.888059041230686e-08,0.06867829530615317
1.255,7.888059041229727e-08,0.06867829530614065
1.256,7.88805904122877e-08,0.06867829530612816
1.257,7.888059041227813e-08,0.06867829530611566
1.258,7.888059041226855e-08,0.06867829530610316
1.259,7.888059041225898e-08,0.06867829530609065
